{"type":"FeatureCollection","features":[{"type":"Feature","geometry":{"type":"Point","coordinates":[-104.645434,40.393792]},"properties":{"id":"OpenTMS-Incident34101080817","title":"Maintenance Operations","type":"Maintenance Operations","roads":"US-34E","chain_law":false,"closure":true,"pass_relevant":false,"observed":"2026-07-22T15:32:55.895Z","source":"incident"}},{"type":"Feature","geometry":{"type":"Point","coordinates":[-104.920903,37.9238]},"properties":{"id":"OpenTMS-Incident33669317063","title":"Fire Activity","type":"Fire Activity","roads":"CO-165N","chain_law":false,"closure":true,"pass_relevant":false,"observed":"2026-07-22T11:34:58.290Z","source":"incident"}},{"type":"Feature","geometry":{"type":"Point","coordinates":[-106.348932,39.221645]},"properties":{"id":"OpenTMS-Incident33816128010","title":"Fire Activity","type":"Fire Activity","roads":"CO-300E","chain_law":false,"closure":true,"pass_relevant":false,"observed":"2026-07-22T16:16:08.670Z","source":"incident"}},{"type":"Feature","geometry":{"type":"Point","coordinates":[-104.66957,37.493732]},"properties":{"id":"OpenTMS-Incident34121828331","title":"Maintenance Operations","type":"Maintenance Operations","roads":"I-25N","chain_law":false,"closure":true,"pass_relevant":false,"observed":"2026-07-22T13:27:36.821Z","source":"incident"}},{"type":"Feature","geometry":{"type":"Point","coordinates":[-106.030249,37.283754]},"properties":{"id":"OpenTMS-Incident34123190071","title":"Maintenance Operations","type":"Maintenance Operations","roads":"CO-15N","chain_law":false,"closure":false,"pass_relevant":false,"observed":"2026-07-22T16:37:08.856Z","source":"incident"}},{"type":"Feature","geometry":{"type":"Point","coordinates":[-104.969939,38.479567]},"properties":{"id":"OpenTMS-Incident34121333996","title":"Maintenance Operations","type":"Maintenance Operations","roads":"CO-115N","chain_law":false,"closure":false,"pass_relevant":false,"observed":"2026-07-22T12:57:48.687Z","source":"incident"}},{"type":"Feature","geometry":{"type":"Point","coordinates":[-104.518814,37.078099]},"properties":{"id":"OpenTMS-Incident34124358494","title":"Debris","type":"Debris","roads":"I-25S","chain_law":false,"closure":false,"pass_relevant":false,"observed":"2026-07-22T16:39:58.700Z","source":"incident"}},{"type":"Feature","geometry":{"type":"Point","coordinates":[-104.656387,38.258413]},"properties":{"id":"OpenTMS-Incident34123722897","title":"Debris","type":"Debris","roads":"CO-96W","chain_law":false,"closure":false,"pass_relevant":false,"observed":"2026-07-22T15:48:28.256Z","source":"incident"}},{"type":"Feature","geometry":{"type":"Point","coordinates":[-103.822984,40.265319]},"properties":{"id":"OpenTMS-Incident34121247748","title":"Maintenance Operations","type":"Maintenance Operations","roads":"I-76E","chain_law":false,"closure":true,"pass_relevant":false,"observed":"2026-07-22T12:51:19.635Z","source":"incident"}},{"type":"Feature","geometry":{"type":"Point","coordinates":[-106.432081,39.589433]},"properties":{"id":"OpenTMS-Incident34009394865","title":"Other Activity","type":"Other Activity","roads":"US-24E","chain_law":false,"closure":false,"pass_relevant":false,"observed":"2026-07-22T01:39:56.316Z","source":"incident"}},{"type":"Feature","geometry":{"type":"Point","coordinates":[-106.010686,39.65313]},"properties":{"id":"OpenTMS-Incident34123775573","title":"Truck Ramp Occupied","type":"Truck Ramp Occupied","roads":"I-70W","chain_law":false,"closure":false,"pass_relevant":true,"observed":"2026-07-22T16:45:38.816Z","source":"incident"}},{"type":"Feature","geometry":{"type":"Point","coordinates":[-106.406101,38.423919]},"properties":{"id":"OpenTMS-Incident34121501272","title":"Maintenance Operations","type":"Maintenance Operations","roads":"US-50E","chain_law":false,"closure":false,"pass_relevant":false,"observed":"2026-07-22T13:20:14.726Z","source":"incident"}},{"type":"Feature","geometry":{"type":"Point","coordinates":[-107.73275,39.636532]},"properties":{"id":"OpenTMS-Incident34122334910","title":"Maintenance Operations","type":"Maintenance Operations","roads":"CO-325N","chain_law":false,"closure":false,"pass_relevant":false,"observed":"2026-07-22T14:06:25.325Z","source":"incident"}},{"type":"Feature","geometry":{"type":"Point","coordinates":[-107.227562,39.569524]},"properties":{"id":"OpenTMS-Incident34124017080","title":"Maintenance Operations","type":"Maintenance Operations","roads":"I-70E","chain_law":false,"closure":true,"pass_relevant":false,"observed":"2026-07-22T16:11:02.572Z","source":"incident"}},{"type":"Feature","geometry":{"type":"Point","coordinates":[-107.584708,39.552943]},"properties":{"id":"OpenTMS-Incident34093012469","title":"Mud Slide","type":"Mud Slide","roads":"I-70E","chain_law":false,"closure":true,"pass_relevant":false,"observed":"2026-07-22T15:56:11.906Z","source":"incident"}},{"type":"Feature","geometry":{"type":"Point","coordinates":[-105.471467,39.745404]},"properties":{"id":"OpenTMS-Incident34122315158","title":"MEXL Open","type":"MEXL Open","roads":"I-70W","chain_law":false,"closure":false,"pass_relevant":false,"observed":"2026-07-22T14:06:35.876Z","source":"incident"}},{"type":"Feature","geometry":{"type":"Point","coordinates":[-104.760064,39.43693]},"properties":{"id":"OpenTMS-Incident34122348272","title":"Maintenance Operations","type":"Maintenance Operations","roads":"CO-83N","chain_law":false,"closure":false,"pass_relevant":false,"observed":"2026-07-22T16:42:36.906Z","source":"incident"}},{"type":"Feature","geometry":{"type":"Point","coordinates":[-106.060104,39.35709]},"properties":{"id":"OpenTMS-Incident34121381208","title":"Maintenance Operations","type":"Maintenance Operations","roads":"CO-9S","chain_law":false,"closure":false,"pass_relevant":false,"observed":"2026-07-22T13:03:38.983Z","source":"incident"}},{"type":"Feature","geometry":{"type":"Point","coordinates":[-107.580421,38.442323]},"properties":{"id":"OpenTMS-Incident34123022920","title":"Maintenance Operations","type":"Maintenance Operations","roads":"US-50E","chain_law":false,"closure":true,"pass_relevant":false,"observed":"2026-07-22T15:01:41.885Z","source":"incident"}},{"type":"Feature","geometry":{"type":"Point","coordinates":[-108.599713,37.366931]},"properties":{"id":"OpenTMS-Incident34102098788","title":"Maintenance Operations","type":"Maintenance Operations","roads":"US-491N","chain_law":false,"closure":false,"pass_relevant":false,"observed":"2026-07-22T12:50:20.356Z","source":"incident"}},{"type":"Feature","geometry":{"type":"Point","coordinates":[-104.667855,40.080543]},"properties":{"id":"OpenTMS-Incident33531957531","title":"Maintenance Operations","type":"Maintenance Operations","roads":"CO-52W","chain_law":false,"closure":false,"pass_relevant":false,"observed":"2026-06-22T15:14:55.892Z","source":"incident"}},{"type":"Feature","geometry":{"type":"Point","coordinates":[-106.779318,40.361991]},"properties":{"id":"OpenTMS-Incident34124243369","title":"Maintenance Operations","type":"Maintenance Operations","roads":"US-40E","chain_law":false,"closure":false,"pass_relevant":false,"observed":"2026-07-22T16:28:20.749Z","source":"incident"}},{"type":"Feature","geometry":{"type":"Point","coordinates":[-108.135095,38.046929]},"properties":{"id":"OpenTMS-Incident34121741568","title":"Maintenance Operations","type":"Maintenance Operations","roads":"CO-145N","chain_law":false,"closure":false,"pass_relevant":false,"observed":"2026-07-22T13:22:50.008Z","source":"incident"}},{"type":"Feature","geometry":{"type":"Point","coordinates":[-104.813595,39.613031]},"properties":{"id":"OpenTMS-Incident34121447793","title":"Maintenance Operations","type":"Maintenance Operations","roads":"CO-83N","chain_law":false,"closure":true,"pass_relevant":false,"observed":"2026-07-22T13:11:00.325Z","source":"incident"}},{"type":"Feature","geometry":{"type":"Point","coordinates":[-104.988082,39.98534]},"properties":{"id":"OpenTMS-Incident34123449593","title":"3+ Vehicle Crash","type":"3+ Vehicle Crash","roads":"I-25S","chain_law":false,"closure":false,"pass_relevant":false,"observed":"2026-07-22T16:40:02.642Z","source":"incident"}},{"type":"Feature","geometry":{"type":"Point","coordinates":[-108.107962,38.030687]},"properties":{"id":"OpenTMS-Incident34122721710","title":"Vehicle Recovery","type":"Vehicle Recovery","roads":"CO-145N","chain_law":false,"closure":true,"pass_relevant":false,"observed":"2026-07-22T14:44:45.944Z","source":"incident"}},{"type":"Feature","geometry":{"type":"Point","coordinates":[-107.723247,37.884621]},"properties":{"id":"OpenTMS-Incident34123936804","title":"Maintenance Operations","type":"Maintenance Operations","roads":"US-550N","chain_law":false,"closure":false,"pass_relevant":false,"observed":"2026-07-22T16:06:16.503Z","source":"incident"}},{"type":"Feature","geometry":{"type":"Point","coordinates":[-105.079354,38.027818]},"properties":{"id":"OpenTMS-Incident33672129454","title":"Fire Activity","type":"Fire Activity","roads":"CO-78E","chain_law":false,"closure":true,"pass_relevant":false,"observed":"2026-07-22T11:34:42.311Z","source":"incident"}},{"type":"Feature","geometry":{"type":"Point","coordinates":[-104.661491,38.258885]},"properties":{"id":"OpenTMS-Event34109643480","title":"Backplate project -140588","type":"Traffic Signal Installation","roads":"CO-45N","chain_law":false,"closure":true,"pass_relevant":false,"observed":"2026-07-21T22:18:07.694Z","source":"planned"}},{"type":"Feature","geometry":{"type":"Point","coordinates":[-104.436877,39.026242]},"properties":{"id":"OpenTMS-Event34016566937","title":"New Project: 26310 - US 24 Resurfacing from Peyton to Calhan-140106","type":"Paving Operations","roads":"US-24W","chain_law":false,"closure":true,"pass_relevant":false,"observed":"2026-07-17T01:50:27.833Z","source":"planned"}},{"type":"Feature","geometry":{"type":"Point","coordinates":[-105.061385,38.992778]},"properties":{"id":"OpenTMS-Event34105160486","title":"CO 67 Capital project-140441","type":"Paving Operations","roads":"CO-67S","chain_law":false,"closure":false,"pass_relevant":false,"observed":"2026-07-21T16:44:03.461Z","source":"planned"}},{"type":"Feature","geometry":{"type":"Point","coordinates":[-106.304188,39.642831]},"properties":{"id":"OpenTMS-Event34087871110","title":"I-70 West Vail Pass — Lane Closures-140394","type":"Road Construction","roads":"I-70E","chain_law":false,"closure":true,"pass_relevant":true,"observed":"2026-07-20T19:04:11.538Z","source":"planned"}},{"type":"Feature","geometry":{"type":"Point","coordinates":[-104.992706,39.680982]},"properties":{"id":"OpenTMS-Event34115917242","title":"US 85 & West Jewell Ave-136706","type":"Bridge Construction","roads":"US-85S","chain_law":false,"closure":false,"pass_relevant":false,"observed":"2026-07-22T06:05:22.283Z","source":"planned"}},{"type":"Feature","geometry":{"type":"Point","coordinates":[-102.264928,40.585696]},"properties":{"id":"OpenTMS-Event33993131389","title":"US 6 and US 385 Bridge Replacements-139844","type":"Bridge Construction","roads":"US-6E","chain_law":false,"closure":true,"pass_relevant":false,"observed":"2026-07-21T00:47:03.681Z","source":"planned"}},{"type":"Feature","geometry":{"type":"Point","coordinates":[-104.606849,39.361574]},"properties":{"id":"OpenTMS-Event34017273572","title":"25632 - CO 86 Resurfacing in Elizabeth-140131","type":"Paving Operations","roads":"CO-86E","chain_law":false,"closure":true,"pass_relevant":false,"observed":"2026-07-17T02:43:08.317Z","source":"planned"}},{"type":"Feature","geometry":{"type":"Point","coordinates":[-104.967074,39.780128]},"properties":{"id":"OpenTMS-Event34112644355","title":"FLS Sprinkler Testing-139719","type":"Tunnel Maintenance","roads":"I-70W","chain_law":false,"closure":true,"pass_relevant":false,"observed":"2026-07-22T02:01:10.229Z","source":"planned"}},{"type":"Feature","geometry":{"type":"Point","coordinates":[-103.896743,37.713543]},"properties":{"id":"OpenTMS-Event34013805965","title":"Timber Bridge Rehabilitation -140092","type":"Road Construction","roads":"US-350E","chain_law":false,"closure":true,"pass_relevant":false,"observed":"2026-07-16T22:00:18.409Z","source":"planned"}},{"type":"Feature","geometry":{"type":"Point","coordinates":[-105.081466,39.765071]},"properties":{"id":"OpenTMS-Event34083221746","title":"Wadsworth Improvement Project-140342","type":"Road Construction","roads":"CO-121N","chain_law":false,"closure":false,"pass_relevant":true,"observed":"2026-07-20T13:14:06.822Z","source":"planned"}},{"type":"Feature","geometry":{"type":"Point","coordinates":[-105.028843,39.573336]},"properties":{"id":"OpenTMS-Event34115910466","title":"Santa Fe Drive Mineral Ave Operational Improvements-135435","type":"Road Construction","roads":"US-85S","chain_law":false,"closure":true,"pass_relevant":false,"observed":"2026-07-22T06:05:09.090Z","source":"planned"}},{"type":"Feature","geometry":{"type":"Point","coordinates":[-104.678607,39.740161]},"properties":{"id":"OpenTMS-Event34039277824","title":"I-70 Aerotropolis Interchange-138135","type":"Bridge Construction","roads":"I-70W","chain_law":false,"closure":true,"pass_relevant":true,"observed":"2026-07-18T06:02:45.695Z","source":"planned"}},{"type":"Feature","geometry":{"type":"Point","coordinates":[-105.170567,40.745568]},"properties":{"id":"OpenTMS-Event33993479412","title":"US 287 Intersection Improvements-139889","type":"Road Construction","roads":"US-287N","chain_law":false,"closure":true,"pass_relevant":false,"observed":"2026-07-15T20:30:33.325Z","source":"planned"}},{"type":"Feature","geometry":{"type":"Point","coordinates":[-108.978957,39.207788]},"properties":{"id":"OpenTMS-Event34071610003","title":"I-70 culvert-140308","type":"Culvert Maintenance","roads":"I-70E","chain_law":false,"closure":true,"pass_relevant":true,"observed":"2026-07-19T22:33:19.872Z","source":"planned"}},{"type":"Feature","geometry":{"type":"Point","coordinates":[-105.946564,39.677027]},"properties":{"id":"OpenTMS-Event34055311573","title":"EJMT Tunnel Inspections-138474","type":"Tunnel Maintenance","roads":"I-70W","chain_law":false,"closure":true,"pass_relevant":true,"observed":"2026-07-19T02:05:07.067Z","source":"planned"}},{"type":"Feature","geometry":{"type":"Point","coordinates":[-106.111615,39.578561]},"properties":{"id":"OpenTMS-Event34039277757","title":"Frisco I-70 CO 9 Exit -137943","type":"Road Construction","roads":"I-70E","chain_law":false,"closure":true,"pass_relevant":true,"observed":"2026-07-18T06:02:42.615Z","source":"planned"}},{"type":"Feature","geometry":{"type":"Point","coordinates":[-108.572709,37.348814]},"properties":{"id":"OpenTMS-Event34083082100","title":"US 160-140284","type":"Traffic Signal Installation","roads":"US-160E","chain_law":false,"closure":true,"pass_relevant":false,"observed":"2026-07-20T13:03:30.572Z","source":"planned"}},{"type":"Feature","geometry":{"type":"Point","coordinates":[-105.170567,40.745568]},"properties":{"id":"OpenTMS-Event33993479480","title":"US 287 Intersection Improvements-139890","type":"Road Construction","roads":"US-287N","chain_law":false,"closure":true,"pass_relevant":false,"observed":"2026-07-15T20:30:33.809Z","source":"planned"}},{"type":"Feature","geometry":{"type":"Point","coordinates":[-105.266408,40.870451]},"properties":{"id":"OpenTMS-Event34121548057","title":"US 287 Intersection Improvements-138448","type":"Road Construction","roads":"US-287N","chain_law":false,"closure":true,"pass_relevant":true,"observed":"2026-07-22T13:03:59.659Z","source":"planned"}},{"type":"Feature","geometry":{"type":"Point","coordinates":[-105.244754,40.022897]},"properties":{"id":"OpenTMS-Event33977586388","title":"CO 157 Concrete Pavement Rehabilitation (7.20)-139157","type":"Concrete Slab Replacement","roads":"CO-157N","chain_law":false,"closure":true,"pass_relevant":false,"observed":"2026-07-15T01:01:38.923Z","source":"planned"}},{"type":"Feature","geometry":{"type":"Point","coordinates":[-104.833272,38.867223]},"properties":{"id":"OpenTMS-Event34085377029","title":"I-25 Acceleration/De-Acceleration Lane from Garden of the Gods Road to Fillmore-140375","type":"Road Construction","roads":"I-25N","chain_law":false,"closure":false,"pass_relevant":false,"observed":"2026-07-20T15:55:51.722Z","source":"planned"}},{"type":"Feature","geometry":{"type":"Point","coordinates":[-104.975945,39.999658]},"properties":{"id":"OpenTMS-Event34090558273","title":"I-25 & CO 7 Interim Transit Improvements-140413","type":"Bridge Construction","roads":"CO-7N","chain_law":false,"closure":true,"pass_relevant":false,"observed":"2026-07-20T22:27:04.242Z","source":"planned"}},{"type":"Feature","geometry":{"type":"Point","coordinates":[-104.992706,39.680982]},"properties":{"id":"OpenTMS-Event34039277938","title":"US 85 & West Jewell Ave-136702","type":"Bridge Construction","roads":"US-85S","chain_law":false,"closure":false,"pass_relevant":false,"observed":"2026-07-18T06:02:55.926Z","source":"planned"}},{"type":"Feature","geometry":{"type":"Point","coordinates":[-106.304188,39.642831]},"properties":{"id":"OpenTMS-Event34087868227","title":"I-70 West Vail Pass — Lane Closures-140393","type":"Road Construction","roads":"I-70E","chain_law":false,"closure":true,"pass_relevant":true,"observed":"2026-07-20T19:04:08.720Z","source":"planned"}},{"type":"Feature","geometry":{"type":"Point","coordinates":[-105.266408,40.870451]},"properties":{"id":"OpenTMS-Event34083075511","title":"US 287 Intersection Improvements-138446","type":"Road Construction","roads":"US-287N","chain_law":false,"closure":true,"pass_relevant":true,"observed":"2026-07-20T13:03:03.835Z","source":"planned"}},{"type":"Feature","geometry":{"type":"Point","coordinates":[-108.069294,38.756289]},"properties":{"id":"OpenTMS-Event34006971330","title":"US 50 Delta Resurfacing-138523","type":"Paving Operations","roads":"US-50E","chain_law":false,"closure":false,"pass_relevant":false,"observed":"2026-07-16T13:01:00.212Z","source":"planned"}},{"type":"Feature","geometry":{"type":"Point","coordinates":[-106.248173,39.581298]},"properties":{"id":"OpenTMS-Event34103879396","title":"I-70 West Vail Pass – Traffic Holds-140400","type":"Rock Work","roads":"I-70W","chain_law":false,"closure":false,"pass_relevant":true,"observed":"2026-07-21T15:07:47.393Z","source":"planned"}},{"type":"Feature","geometry":{"type":"Point","coordinates":[-108.572709,37.348814]},"properties":{"id":"OpenTMS-Event34071477882","title":"US 160-140279","type":"Traffic Signal Installation","roads":"US-160E","chain_law":false,"closure":true,"pass_relevant":false,"observed":"2026-07-19T22:23:30.950Z","source":"planned"}},{"type":"Feature","geometry":{"type":"Point","coordinates":[-104.952579,37.5535]},"properties":{"id":"OpenTMS-Event34110612874","title":"Road Construction-140448","type":"Road Construction","roads":"US-160E","chain_law":false,"closure":true,"pass_relevant":false,"observed":"2026-07-21T23:29:50.531Z","source":"planned"}},{"type":"Feature","geometry":{"type":"Point","coordinates":[-102.242092,39.93777]},"properties":{"id":"OpenTMS-Event34084171685","title":"US-385-140344","type":"Paving Operations","roads":"US-385N","chain_law":false,"closure":false,"pass_relevant":false,"observed":"2026-07-20T14:25:20.678Z","source":"planned"}},{"type":"Feature","geometry":{"type":"Point","coordinates":[-107.859817,39.515787]},"properties":{"id":"OpenTMS-Event34012033445","title":"Paving Operations-139809","type":"Paving Operations","roads":"I-70E","chain_law":false,"closure":true,"pass_relevant":false,"observed":"2026-07-16T19:17:00.360Z","source":"planned"}},{"type":"Feature","geometry":{"type":"Point","coordinates":[-104.699362,39.740098]},"properties":{"id":"OpenTMS-Event34019939917","title":"I-70 Aerotropolis Interchange-138103","type":"Bridge Construction","roads":"I-70E","chain_law":false,"closure":true,"pass_relevant":true,"observed":"2026-07-17T06:01:08.138Z","source":"planned"}},{"type":"Feature","geometry":{"type":"Point","coordinates":[-105.460455,39.746457]},"properties":{"id":"OpenTMS-Event34013526542","title":"I-70 Floyd Hill Project - WO 07/19/26-140004","type":"Road Construction","roads":"I-70W","chain_law":false,"closure":false,"pass_relevant":true,"observed":"2026-07-16T21:15:08.875Z","source":"planned"}},{"type":"Feature","geometry":{"type":"Point","coordinates":[-105.23404,40.050204]},"properties":{"id":"OpenTMS-Event34031453712","title":"CO 119 Safety, Mobility & Bikeway Construction - WO 07/19/26-140191","type":"Road Construction","roads":"CO-119N","chain_law":false,"closure":true,"pass_relevant":false,"observed":"2026-07-17T20:18:17.790Z","source":"planned"}},{"type":"Feature","geometry":{"type":"Point","coordinates":[-105.440188,39.745555]},"properties":{"id":"OpenTMS-Event34013526666","title":"I-70 Floyd Hill Project - WO 07/19/26-140071","type":"Road Construction","roads":"I-70W","chain_law":false,"closure":false,"pass_relevant":true,"observed":"2026-07-16T21:15:17.890Z","source":"planned"}},{"type":"Feature","geometry":{"type":"Point","coordinates":[-105.293969,39.742238]},"properties":{"id":"OpenTMS-Event34005816241","title":"Work Element Highway US 6-139881","type":"Road Construction","roads":"US-6E","chain_law":false,"closure":true,"pass_relevant":false,"observed":"2026-07-16T11:35:36.382Z","source":"planned"}},{"type":"Feature","geometry":{"type":"Point","coordinates":[-102.284114,40.585691]},"properties":{"id":"OpenTMS-Event33993131404","title":"US 6 and US 385 Bridge Replacements-139870","type":"Bridge Construction","roads":"US-6E","chain_law":false,"closure":false,"pass_relevant":false,"observed":"2026-07-21T00:47:04.713Z","source":"planned"}},{"type":"Feature","geometry":{"type":"Point","coordinates":[-105.061385,38.992778]},"properties":{"id":"OpenTMS-Event34105160505","title":"CO 67 Capital project-140442","type":"Paving Operations","roads":"CO-67S","chain_law":false,"closure":false,"pass_relevant":false,"observed":"2026-07-21T16:44:03.872Z","source":"planned"}},{"type":"Feature","geometry":{"type":"Point","coordinates":[-108.62087,39.072603]},"properties":{"id":"OpenTMS-Event34070340266","title":"CO 340-140223","type":"Road Construction","roads":"CO-340E","chain_law":false,"closure":false,"pass_relevant":false,"observed":"2026-07-19T20:57:14.105Z","source":"planned"}},{"type":"Feature","geometry":{"type":"Point","coordinates":[-104.975867,39.999804]},"properties":{"id":"OpenTMS-Event34103879655","title":"I-25 & CO 7 Interim Transit Improvements-140420","type":"Bridge Construction","roads":"CO-7S","chain_law":false,"closure":true,"pass_relevant":false,"observed":"2026-07-21T15:08:03.747Z","source":"planned"}},{"type":"Feature","geometry":{"type":"Point","coordinates":[-105.007442,39.740279]},"properties":{"id":"OpenTMS-Event34058500916","title":"Colfax Downtown Rail Reconstruction Part 2-136081","type":"Road Construction","roads":"US-40W","chain_law":false,"closure":true,"pass_relevant":false,"observed":"2026-07-19T06:04:48.363Z","source":"planned"}},{"type":"Feature","geometry":{"type":"Point","coordinates":[-105.612759,38.26572]},"properties":{"id":"OpenTMS-Event34012309112","title":"CO 69 Resurfacing Hillside to Texas Creek-139961","type":"Paving Operations","roads":"CO-69N","chain_law":false,"closure":false,"pass_relevant":false,"observed":"2026-07-16T19:37:21.710Z","source":"planned"}},{"type":"Feature","geometry":{"type":"Point","coordinates":[-108.567833,39.064397]},"properties":{"id":"OpenTMS-Event33023406191","title":"I-70B East of Third Street Improvements-134425","type":"Road Construction","roads":"CO-70E","chain_law":false,"closure":true,"pass_relevant":false,"observed":"2026-07-08T17:11:52.478Z","source":"planned"}},{"type":"Feature","geometry":{"type":"Point","coordinates":[-104.757966,39.477557]},"properties":{"id":"OpenTMS-Event34103865564","title":"Parker Sidewalks-139666","type":"Other","roads":"CO-83N","chain_law":false,"closure":true,"pass_relevant":false,"observed":"2026-07-21T15:06:51.496Z","source":"planned"}},{"type":"Feature","geometry":{"type":"Point","coordinates":[-104.699362,39.740098]},"properties":{"id":"OpenTMS-Event33961945730","title":"I-70 Aerotropolis Interchange-138100","type":"Bridge Construction","roads":"I-70E","chain_law":false,"closure":true,"pass_relevant":true,"observed":"2026-07-14T06:01:59.957Z","source":"planned"}},{"type":"Feature","geometry":{"type":"Point","coordinates":[-105.612759,38.26572]},"properties":{"id":"OpenTMS-Event34012309082","title":"CO 69 Resurfacing Hillside to Texas Creek-139959","type":"Paving Operations","roads":"CO-69N","chain_law":false,"closure":false,"pass_relevant":false,"observed":"2026-07-16T19:37:20.593Z","source":"planned"}},{"type":"Feature","geometry":{"type":"Point","coordinates":[-108.572709,37.348814]},"properties":{"id":"OpenTMS-Event34071477865","title":"US 160-140278","type":"Traffic Signal Installation","roads":"US-160E","chain_law":false,"closure":true,"pass_relevant":false,"observed":"2026-07-19T22:23:30.413Z","source":"planned"}},{"type":"Feature","geometry":{"type":"Point","coordinates":[-105.293969,39.742238]},"properties":{"id":"OpenTMS-Event33993062986","title":"Work Element Highway US 6-139874","type":"Road Construction","roads":"US-6E","chain_law":false,"closure":false,"pass_relevant":false,"observed":"2026-07-15T19:55:17.803Z","source":"planned"}},{"type":"Feature","geometry":{"type":"Point","coordinates":[-108.572709,37.348814]},"properties":{"id":"OpenTMS-Event34071477776","title":"US 160-140283","type":"Traffic Signal Installation","roads":"US-160E","chain_law":false,"closure":true,"pass_relevant":false,"observed":"2026-07-19T22:23:28.601Z","source":"planned"}},{"type":"Feature","geometry":{"type":"Point","coordinates":[-104.992239,39.684248]},"properties":{"id":"OpenTMS-Event34058501261","title":"US 85 & West Jewell Ave-129518","type":"Bridge Construction","roads":"US-85S","chain_law":false,"closure":true,"pass_relevant":false,"observed":"2026-07-19T06:05:07.075Z","source":"planned"}},{"type":"Feature","geometry":{"type":"Point","coordinates":[-104.872022,39.508432]},"properties":{"id":"OpenTMS-Event33987436875","title":"PASE ENVIROMENTAL / PWQ / TASK ORDER # 52-136595","type":"Other","roads":"I-25S","chain_law":false,"closure":true,"pass_relevant":false,"observed":"2026-07-15T13:01:45.087Z","source":"planned"}},{"type":"Feature","geometry":{"type":"Point","coordinates":[-107.540076,39.571428]},"properties":{"id":"OpenTMS-Event34083075331","title":"US 6 Elk Creek Bridge Replacement-139605","type":"Bridge Construction","roads":"US-6W","chain_law":false,"closure":false,"pass_relevant":false,"observed":"2026-07-20T13:02:47.619Z","source":"planned"}},{"type":"Feature","geometry":{"type":"Point","coordinates":[-105.266408,40.870451]},"properties":{"id":"OpenTMS-Event34025832073","title":"US 287 Intersection Improvements-138443","type":"Road Construction","roads":"US-287N","chain_law":false,"closure":true,"pass_relevant":true,"observed":"2026-07-17T13:18:35.959Z","source":"planned"}},{"type":"Feature","geometry":{"type":"Point","coordinates":[-105.234263,39.698286]},"properties":{"id":"OpenTMS-Event34109374164","title":"I-70 Resurfacing - Chief Hosa to Colfax-140555","type":"IT or Fiber Optics","roads":"I-70E","chain_law":false,"closure":true,"pass_relevant":true,"observed":"2026-07-21T22:18:27.251Z","source":"planned"}},{"type":"Feature","geometry":{"type":"Point","coordinates":[-108.069294,38.756289]},"properties":{"id":"OpenTMS-Event34064069370","title":"US 50 Delta Resurfacing-138524","type":"Paving Operations","roads":"US-50E","chain_law":false,"closure":false,"pass_relevant":false,"observed":"2026-07-19T13:04:49.270Z","source":"planned"}},{"type":"Feature","geometry":{"type":"Point","coordinates":[-105.16587,39.734865]},"properties":{"id":"OpenTMS-Event33987443650","title":"I-70 Resurfacing - Chief Hosa to Colfax-139704","type":"Road Construction","roads":"I-70W","chain_law":false,"closure":true,"pass_relevant":true,"observed":"2026-07-21T22:02:28.398Z","source":"planned"}},{"type":"Feature","geometry":{"type":"Point","coordinates":[-107.911257,39.500229]},"properties":{"id":"OpenTMS-Event34012033428","title":"Paving Operations-139816","type":"Paving Operations","roads":"I-70E","chain_law":false,"closure":true,"pass_relevant":true,"observed":"2026-07-16T19:16:59.759Z","source":"planned"}},{"type":"Feature","geometry":{"type":"Point","coordinates":[-105.696342,39.716704]},"properties":{"id":"OpenTMS-Event34013519622","title":"R2 - I-70 Chain Station Technology & Communications Upgrades-140049","type":"Other","roads":"I-70E","chain_law":true,"closure":true,"pass_relevant":true,"observed":"2026-07-16T21:09:28.952Z","source":"planned"}},{"type":"Feature","geometry":{"type":"Point","coordinates":[-107.540076,39.571428]},"properties":{"id":"OpenTMS-Event34006978255","title":"US 6 Elk Creek Bridge Replacement-139603","type":"Bridge Construction","roads":"US-6W","chain_law":false,"closure":false,"pass_relevant":false,"observed":"2026-07-16T13:01:30.335Z","source":"planned"}},{"type":"Feature","geometry":{"type":"Point","coordinates":[-105.007442,39.740279]},"properties":{"id":"OpenTMS-Event34077590748","title":"Colfax Downtown Rail Reconstruction Part 2-136082","type":"Road Construction","roads":"US-40W","chain_law":false,"closure":true,"pass_relevant":false,"observed":"2026-07-20T06:08:21.195Z","source":"planned"}},{"type":"Feature","geometry":{"type":"Point","coordinates":[-106.305468,39.643381]},"properties":{"id":"OpenTMS-Event34024067410","title":"I-70 West Vail Pass — Lane Closures-139913","type":"Road Construction","roads":"I-70E","chain_law":false,"closure":true,"pass_relevant":true,"observed":"2026-07-17T11:06:55.148Z","source":"planned"}},{"type":"Feature","geometry":{"type":"Point","coordinates":[-105.23404,40.050204]},"properties":{"id":"OpenTMS-Event34031453731","title":"CO 119 Safety, Mobility & Bikeway Construction - WO 07/19/26-140192","type":"Road Construction","roads":"CO-119N","chain_law":false,"closure":true,"pass_relevant":false,"observed":"2026-07-17T20:18:18.344Z","source":"planned"}},{"type":"Feature","geometry":{"type":"Point","coordinates":[-104.975945,39.999658]},"properties":{"id":"OpenTMS-Event34008642978","title":"I-25 & CO 7 Interim Transit Improvements-139695","type":"Bridge Construction","roads":"CO-7N","chain_law":false,"closure":true,"pass_relevant":false,"observed":"2026-07-16T15:03:39.774Z","source":"planned"}},{"type":"Feature","geometry":{"type":"Point","coordinates":[-108.572709,37.348814]},"properties":{"id":"OpenTMS-Event34071477725","title":"US 160-140280","type":"Traffic Signal Installation","roads":"US-160E","chain_law":false,"closure":true,"pass_relevant":false,"observed":"2026-07-19T22:23:26.719Z","source":"planned"}},{"type":"Feature","geometry":{"type":"Point","coordinates":[-104.992239,39.684248]},"properties":{"id":"OpenTMS-Event34096647539","title":"US 85 & West Jewell Ave-129520","type":"Bridge Construction","roads":"US-85S","chain_law":false,"closure":true,"pass_relevant":false,"observed":"2026-07-21T06:05:26.746Z","source":"planned"}},{"type":"Feature","geometry":{"type":"Point","coordinates":[-105.170622,40.744531]},"properties":{"id":"OpenTMS-Event34006571250","title":"US 287 Intersection Improvements-139891","type":"Road Construction","roads":"US-287N","chain_law":false,"closure":true,"pass_relevant":false,"observed":"2026-07-16T12:31:30.058Z","source":"planned"}},{"type":"Feature","geometry":{"type":"Point","coordinates":[-106.044535,39.640308]},"properties":{"id":"OpenTMS-Event34102319321","title":"I-70 Straight Creek Culvert Repairs-138548","type":"Culvert Maintenance","roads":"I-70W","chain_law":false,"closure":false,"pass_relevant":true,"observed":"2026-07-21T13:10:20.995Z","source":"planned"}},{"type":"Feature","geometry":{"type":"Point","coordinates":[-105.248099,40.212195]},"properties":{"id":"OpenTMS-Event34072079014","title":"US 36/CO 66-140325","type":"IT or Fiber Optics","roads":"CO-66E","chain_law":false,"closure":false,"pass_relevant":false,"observed":"2026-07-19T23:08:58.982Z","source":"planned"}},{"type":"Feature","geometry":{"type":"Point","coordinates":[-105.06145,38.992946]},"properties":{"id":"OpenTMS-Event34105160543","title":"CO 67 Capital project-140436","type":"Paving Operations","roads":"CO-67N","chain_law":false,"closure":false,"pass_relevant":false,"observed":"2026-07-21T16:44:04.694Z","source":"planned"}},{"type":"Feature","geometry":{"type":"Point","coordinates":[-104.827637,38.903604]},"properties":{"id":"OpenTMS-Event34085049819","title":"I-25 Acceleration/De-Acceleration Lane from Garden of the Gods Road to Fillmore-140206","type":"Road Construction","roads":"I-25S","chain_law":false,"closure":true,"pass_relevant":false,"observed":"2026-07-20T15:31:14.466Z","source":"planned"}},{"type":"Feature","geometry":{"type":"Point","coordinates":[-105.16587,39.734865]},"properties":{"id":"OpenTMS-Event33969957246","title":"I-70 Resurfacing - Chief Hosa to Colfax-139703","type":"Road Construction","roads":"I-70W","chain_law":false,"closure":true,"pass_relevant":true,"observed":"2026-07-21T22:02:30.167Z","source":"planned"}},{"type":"Feature","geometry":{"type":"Point","coordinates":[-106.111615,39.578561]},"properties":{"id":"OpenTMS-Event33981737285","title":"Frisco I-70 CO 9 Exit -137940","type":"Road Construction","roads":"I-70E","chain_law":false,"closure":true,"pass_relevant":true,"observed":"2026-07-15T06:05:02.038Z","source":"planned"}},{"type":"Feature","geometry":{"type":"Point","coordinates":[-104.988208,40.00031]},"properties":{"id":"OpenTMS-Event34103879493","title":"I-25 & CO 7 Interim Transit Improvements-140405","type":"Bridge Construction","roads":"CO-7N","chain_law":false,"closure":false,"pass_relevant":false,"observed":"2026-07-21T15:07:50.920Z","source":"planned"}},{"type":"Feature","geometry":{"type":"Point","coordinates":[-104.699362,39.740098]},"properties":{"id":"OpenTMS-Event34039277871","title":"I-70 Aerotropolis Interchange-138104","type":"Bridge Construction","roads":"I-70E","chain_law":false,"closure":true,"pass_relevant":true,"observed":"2026-07-18T06:02:47.524Z","source":"planned"}},{"type":"Feature","geometry":{"type":"Point","coordinates":[-104.585319,38.286083]},"properties":{"id":"OpenTMS-Event34109039717","title":"Backplate project -140477","type":"Traffic Signal Installation","roads":"US-50E","chain_law":false,"closure":false,"pass_relevant":false,"observed":"2026-07-21T22:18:06.928Z","source":"planned"}},{"type":"Feature","geometry":{"type":"Point","coordinates":[-105.017873,40.160543]},"properties":{"id":"OpenTMS-Event31065348918","title":"CO 119 St. Vrain Greenway – Phase 13 – Eastern Extension-127004","type":"Road Construction","roads":"CO-119N","chain_law":false,"closure":true,"pass_relevant":false,"observed":"2026-04-01T14:15:17.753Z","source":"planned"}},{"type":"Feature","geometry":{"type":"Point","coordinates":[-105.09939,40.203276]},"properties":{"id":"OpenTMS-Event34072078933","title":"US 36/CO 66-140321","type":"IT or Fiber Optics","roads":"CO-66W","chain_law":false,"closure":true,"pass_relevant":false,"observed":"2026-07-19T23:08:57.685Z","source":"planned"}},{"type":"Feature","geometry":{"type":"Point","coordinates":[-104.950534,39.780009]},"properties":{"id":"OpenTMS-Event34074422460","title":"FLS Sprinkler Testing-139711","type":"Tunnel Maintenance","roads":"I-70E","chain_law":false,"closure":true,"pass_relevant":false,"observed":"2026-07-20T02:05:12.055Z","source":"planned"}},{"type":"Feature","geometry":{"type":"Point","coordinates":[-104.872022,39.508432]},"properties":{"id":"OpenTMS-Event34006978150","title":"PASE ENVIROMENTAL / PWQ / TASK ORDER # 52-136596","type":"Other","roads":"I-25S","chain_law":false,"closure":true,"pass_relevant":false,"observed":"2026-07-16T13:01:23.604Z","source":"planned"}},{"type":"Feature","geometry":{"type":"Point","coordinates":[-104.992239,39.684248]},"properties":{"id":"OpenTMS-Event33981744039","title":"US 85 & West Jewell Ave-129514","type":"Bridge Construction","roads":"US-85S","chain_law":false,"closure":true,"pass_relevant":false,"observed":"2026-07-15T06:05:33.769Z","source":"planned"}},{"type":"Feature","geometry":{"type":"Point","coordinates":[-105.266408,40.870451]},"properties":{"id":"OpenTMS-Event34006991637","title":"US 287 Intersection Improvements-138442","type":"Road Construction","roads":"US-287N","chain_law":false,"closure":true,"pass_relevant":true,"observed":"2026-07-16T13:02:17.220Z","source":"planned"}},{"type":"Feature","geometry":{"type":"Point","coordinates":[-105.251807,39.665881]},"properties":{"id":"OpenTMS-Event33987436816","title":"CO 74 Resurfacing (Week of 7.20)-139177","type":"Paving Operations","roads":"CO-74E","chain_law":false,"closure":true,"pass_relevant":false,"observed":"2026-07-15T13:01:43.889Z","source":"planned"}},{"type":"Feature","geometry":{"type":"Point","coordinates":[-104.952579,37.5535]},"properties":{"id":"OpenTMS-Event34012033317","title":"Road Construction-139804","type":"Road Construction","roads":"US-160E","chain_law":false,"closure":true,"pass_relevant":false,"observed":"2026-07-21T23:29:47.957Z","source":"planned"}},{"type":"Feature","geometry":{"type":"Point","coordinates":[-104.872939,39.347644]},"properties":{"id":"OpenTMS-Event34074836040","title":"Nighttime I-25 lane closures or bridge work at Crystal Valley Parkway Exit 179-140330","type":"Bridge Construction","roads":"I-25S","chain_law":false,"closure":true,"pass_relevant":false,"observed":"2026-07-21T21:18:04.058Z","source":"planned"}},{"type":"Feature","geometry":{"type":"Point","coordinates":[-106.304188,39.642831]},"properties":{"id":"OpenTMS-Event34005400978","title":"I-70 West Vail Pass — Lane Closures-139912","type":"Road Construction","roads":"I-70E","chain_law":false,"closure":true,"pass_relevant":true,"observed":"2026-07-16T11:04:50.650Z","source":"planned"}},{"type":"Feature","geometry":{"type":"Point","coordinates":[-105.266408,40.870451]},"properties":{"id":"OpenTMS-Event34044884180","title":"US 287 Intersection Improvements-138444","type":"Road Construction","roads":"US-287N","chain_law":false,"closure":true,"pass_relevant":true,"observed":"2026-07-18T13:01:35.723Z","source":"planned"}},{"type":"Feature","geometry":{"type":"Point","coordinates":[-105.367584,39.713234]},"properties":{"id":"OpenTMS-Event34013519814","title":"R2 - I-70 Chain Station Technology & Communications Upgrades-140058","type":"Other","roads":"I-70E","chain_law":true,"closure":true,"pass_relevant":true,"observed":"2026-07-16T21:09:33.496Z","source":"planned"}},{"type":"Feature","geometry":{"type":"Point","coordinates":[-104.988208,40.00031]},"properties":{"id":"OpenTMS-Event34090411552","title":"I-25 & CO 7 Interim Transit Improvements-140403","type":"Bridge Construction","roads":"CO-7N","chain_law":false,"closure":false,"pass_relevant":false,"observed":"2026-07-20T22:16:07.576Z","source":"planned"}},{"type":"Feature","geometry":{"type":"Point","coordinates":[-105.23488,40.050817]},"properties":{"id":"OpenTMS-Event34031453865","title":"CO 119 Safety, Mobility & Bikeway Construction - WO 07/19/26-140197","type":"Road Construction","roads":"CO-119S","chain_law":false,"closure":true,"pass_relevant":false,"observed":"2026-07-17T20:18:21.488Z","source":"planned"}},{"type":"Feature","geometry":{"type":"Point","coordinates":[-104.872939,39.347644]},"properties":{"id":"OpenTMS-Event34074836057","title":"Nighttime I-25 lane closures or bridge work at Crystal Valley Parkway Exit 179-140331","type":"Bridge Construction","roads":"I-25S","chain_law":false,"closure":true,"pass_relevant":false,"observed":"2026-07-21T21:18:05.109Z","source":"planned"}},{"type":"Feature","geometry":{"type":"Point","coordinates":[-105.440188,39.745555]},"properties":{"id":"OpenTMS-Event34013526645","title":"I-70 Floyd Hill Project - WO 07/19/26-140070","type":"Road Construction","roads":"I-70W","chain_law":false,"closure":false,"pass_relevant":true,"observed":"2026-07-16T21:15:15.103Z","source":"planned"}},{"type":"Feature","geometry":{"type":"Point","coordinates":[-108.578443,37.348712]},"properties":{"id":"OpenTMS-Event34083082142","title":"US 160-140296","type":"Traffic Signal Installation","roads":"US-160E","chain_law":false,"closure":false,"pass_relevant":false,"observed":"2026-07-20T13:03:31.761Z","source":"planned"}},{"type":"Feature","geometry":{"type":"Point","coordinates":[-106.389183,39.520146]},"properties":{"id":"OpenTMS-Event34013318136","title":"Road Construction-139985","type":"Road Construction","roads":"US-24E","chain_law":false,"closure":false,"pass_relevant":false,"observed":"2026-07-16T20:54:36.593Z","source":"planned"}},{"type":"Feature","geometry":{"type":"Point","coordinates":[-104.975867,39.999804]},"properties":{"id":"OpenTMS-Event34008643205","title":"I-25 & CO 7 Interim Transit Improvements-139700","type":"Bridge Construction","roads":"CO-7S","chain_law":false,"closure":true,"pass_relevant":false,"observed":"2026-07-16T15:03:41.344Z","source":"planned"}},{"type":"Feature","geometry":{"type":"Point","coordinates":[-104.757966,39.477557]},"properties":{"id":"OpenTMS-Event33969391625","title":"Parker Sidewalks-139661","type":"Other","roads":"CO-83N","chain_law":false,"closure":true,"pass_relevant":false,"observed":"2026-07-14T15:01:58.487Z","source":"planned"}},{"type":"Feature","geometry":{"type":"Point","coordinates":[-107.540076,39.571428]},"properties":{"id":"OpenTMS-Event34102319413","title":"US 6 Elk Creek Bridge Replacement-139606","type":"Bridge Construction","roads":"US-6W","chain_law":false,"closure":false,"pass_relevant":false,"observed":"2026-07-21T13:10:29.368Z","source":"planned"}},{"type":"Feature","geometry":{"type":"Point","coordinates":[-104.975945,39.999658]},"properties":{"id":"OpenTMS-Event33989114645","title":"I-25 & CO 7 Interim Transit Improvements-139694","type":"Bridge Construction","roads":"CO-7N","chain_law":false,"closure":true,"pass_relevant":false,"observed":"2026-07-15T15:04:41.136Z","source":"planned"}},{"type":"Feature","geometry":{"type":"Point","coordinates":[-104.613619,38.409941]},"properties":{"id":"OpenTMS-Event33998113929","title":"I-25 Cable Rail Installation-139746","type":"Guardrail","roads":"I-25N","chain_law":false,"closure":true,"pass_relevant":false,"observed":"2026-07-17T14:36:03.421Z","source":"planned"}},{"type":"Feature","geometry":{"type":"Point","coordinates":[-104.827637,38.903604]},"properties":{"id":"OpenTMS-Event34085377073","title":"I-25 Acceleration/De-Acceleration Lane from Garden of the Gods Road to Fillmore-140385","type":"Road Construction","roads":"I-25S","chain_law":false,"closure":false,"pass_relevant":false,"observed":"2026-07-20T15:55:52.751Z","source":"planned"}},{"type":"Feature","geometry":{"type":"Point","coordinates":[-104.988208,40.00031]},"properties":{"id":"OpenTMS-Event33998119572","title":"I-25 & CO 7 Interim Transit Improvements-139849","type":"Traffic Signal Installation","roads":"CO-7N","chain_law":false,"closure":true,"pass_relevant":false,"observed":"2026-07-16T02:06:14.429Z","source":"planned"}},{"type":"Feature","geometry":{"type":"Point","coordinates":[-104.659694,38.313805]},"properties":{"id":"OpenTMS-Event34071939929","title":"Backplate project -140316","type":"Traffic Signal Installation","roads":"US-50E","chain_law":false,"closure":true,"pass_relevant":false,"observed":"2026-07-21T22:18:08.093Z","source":"planned"}},{"type":"Feature","geometry":{"type":"Point","coordinates":[-107.247504,40.497195]},"properties":{"id":"OpenTMS-Event33967774126","title":"US 40 over Shelton Ditch-138275","type":"Road Construction","roads":"US-40W","chain_law":false,"closure":false,"pass_relevant":false,"observed":"2026-07-14T13:04:27.142Z","source":"planned"}},{"type":"Feature","geometry":{"type":"Point","coordinates":[-104.992239,39.684248]},"properties":{"id":"OpenTMS-Event34077590888","title":"US 85 & West Jewell Ave-129519","type":"Bridge Construction","roads":"US-85S","chain_law":false,"closure":true,"pass_relevant":false,"observed":"2026-07-20T06:08:33.715Z","source":"planned"}},{"type":"Feature","geometry":{"type":"Point","coordinates":[-105.061385,38.992778]},"properties":{"id":"OpenTMS-Event33969536141","title":"CO 67 Capital project-139677","type":"Paving Operations","roads":"CO-67S","chain_law":false,"closure":false,"pass_relevant":false,"observed":"2026-07-14T15:12:14.311Z","source":"planned"}},{"type":"Feature","geometry":{"type":"Point","coordinates":[-107.65749,37.976069]},"properties":{"id":"OpenTMS-Event34012694474","title":"US 550 Red Mountain Wall & Tunnel Repairs-139971","type":"Tunnel Maintenance","roads":"US-550S","chain_law":false,"closure":false,"pass_relevant":true,"observed":"2026-07-16T20:07:52.269Z","source":"planned"}},{"type":"Feature","geometry":{"type":"Point","coordinates":[-104.931545,39.803666]},"properties":{"id":"OpenTMS-Event34011698322","title":"Various intersection & median work – Vasquez Blvd between I-270 and 64th Ave-139949","type":"Road Construction","roads":"US-6E","chain_law":false,"closure":true,"pass_relevant":false,"observed":"2026-07-16T18:51:51.312Z","source":"planned"}},{"type":"Feature","geometry":{"type":"Point","coordinates":[-104.520212,37.124409]},"properties":{"id":"OpenTMS-Event34027628110","title":"Statewide Scales-140151","type":"Road Construction","roads":"I-25N","chain_law":false,"closure":true,"pass_relevant":false,"observed":"2026-07-17T15:32:39.948Z","source":"planned"}},{"type":"Feature","geometry":{"type":"Point","coordinates":[-107.540076,39.571428]},"properties":{"id":"OpenTMS-Event33967787979","title":"US 6 Elk Creek Bridge Replacement-139601","type":"Bridge Construction","roads":"US-6W","chain_law":false,"closure":false,"pass_relevant":false,"observed":"2026-07-14T13:05:29.093Z","source":"planned"}},{"type":"Feature","geometry":{"type":"Point","coordinates":[-105.16587,39.734865]},"properties":{"id":"OpenTMS-Event34109647698","title":"I-70 Resurfacing - Chief Hosa to Colfax-140578","type":"Other","roads":"I-70W","chain_law":false,"closure":true,"pass_relevant":true,"observed":"2026-07-21T22:18:11.969Z","source":"planned"}},{"type":"Feature","geometry":{"type":"Point","coordinates":[-107.86669,37.233631]},"properties":{"id":"OpenTMS-Event34012033215","title":"Paving Operations-139785","type":"Paving Operations","roads":"US-160E","chain_law":false,"closure":true,"pass_relevant":false,"observed":"2026-07-16T19:16:54.503Z","source":"planned"}},{"type":"Feature","geometry":{"type":"Point","coordinates":[-105.304221,39.712512]},"properties":{"id":"OpenTMS-Event34006984896","title":"I-70 Resurfacing - Chief Hosa to Colfax-139710","type":"Road Construction","roads":"I-70E","chain_law":false,"closure":true,"pass_relevant":true,"observed":"2026-07-21T22:02:32.114Z","source":"planned"}},{"type":"Feature","geometry":{"type":"Point","coordinates":[-105.062214,39.565971]},"properties":{"id":"OpenTMS-Event34108501189","title":"CTIO Long-Term Stationary Lane Closure-140470","type":"Other","roads":"CO-470E","chain_law":false,"closure":true,"pass_relevant":false,"observed":"2026-07-22T16:10:44.879Z","source":"planned"}},{"type":"Feature","geometry":{"type":"Point","coordinates":[-104.988208,40.00031]},"properties":{"id":"OpenTMS-Event34123163349","title":"I-25 & CO 7 Interim Transit Improvements-140406","type":"Bridge Construction","roads":"CO-7N","chain_law":false,"closure":false,"pass_relevant":false,"observed":"2026-07-22T15:04:41.153Z","source":"planned"}},{"type":"Feature","geometry":{"type":"Point","coordinates":[-105.460455,39.746457]},"properties":{"id":"OpenTMS-Event34013526461","title":"I-70 Floyd Hill Project - WO 07/19/26-140002","type":"Road Construction","roads":"I-70W","chain_law":false,"closure":false,"pass_relevant":true,"observed":"2026-07-16T21:15:13.755Z","source":"planned"}},{"type":"Feature","geometry":{"type":"Point","coordinates":[-108.62087,39.072603]},"properties":{"id":"OpenTMS-Event34070340250","title":"CO 340-140222","type":"Road Construction","roads":"CO-340E","chain_law":false,"closure":false,"pass_relevant":false,"observed":"2026-07-19T20:57:13.779Z","source":"planned"}},{"type":"Feature","geometry":{"type":"Point","coordinates":[-106.304065,39.642991]},"properties":{"id":"OpenTMS-Event34005401026","title":"I-70 West Vail Pass — Lane Closures-139906","type":"Road Construction","roads":"I-70W","chain_law":false,"closure":true,"pass_relevant":true,"observed":"2026-07-16T11:04:52.814Z","source":"planned"}},{"type":"Feature","geometry":{"type":"Point","coordinates":[-105.304221,39.712512]},"properties":{"id":"OpenTMS-Event33979255673","title":"I-70 Resurfacing - Chief Hosa to Colfax-139770","type":"Road Construction","roads":"I-70E","chain_law":false,"closure":false,"pass_relevant":true,"observed":"2026-07-21T22:02:33.351Z","source":"planned"}},{"type":"Feature","geometry":{"type":"Point","coordinates":[-103.664551,39.262625]},"properties":{"id":"OpenTMS-Event33711524949","title":"I-70 Bridge Maintenance-138257","type":"Bridge Maintenance Operations","roads":"I-70W","chain_law":false,"closure":true,"pass_relevant":true,"observed":"2026-07-17T15:32:37.696Z","source":"planned"}},{"type":"Feature","geometry":{"type":"Point","coordinates":[-105.946564,39.677027]},"properties":{"id":"OpenTMS-Event33998099356","title":"EJMT Tunnel Inspections-138471","type":"Tunnel Maintenance","roads":"I-70W","chain_law":false,"closure":true,"pass_relevant":true,"observed":"2026-07-16T02:04:59.096Z","source":"planned"}},{"type":"Feature","geometry":{"type":"Point","coordinates":[-105.720121,39.697817]},"properties":{"id":"OpenTMS-Event34099697901","title":"Ditch Work-140435","type":"Rock Work","roads":"I-70W","chain_law":false,"closure":true,"pass_relevant":false,"observed":"2026-07-21T09:53:46.078Z","source":"planned"}},{"type":"Feature","geometry":{"type":"Point","coordinates":[-105.234263,39.698286]},"properties":{"id":"OpenTMS-Event34109367763","title":"I-70 Resurfacing - Chief Hosa to Colfax-140560","type":"IT or Fiber Optics","roads":"I-70E","chain_law":false,"closure":true,"pass_relevant":true,"observed":"2026-07-21T22:18:19.830Z","source":"planned"}},{"type":"Feature","geometry":{"type":"Point","coordinates":[-104.988208,40.00031]},"properties":{"id":"OpenTMS-Event34008636476","title":"I-25 & CO 7 Interim Transit Improvements-139685","type":"Bridge Construction","roads":"CO-7N","chain_law":false,"closure":false,"pass_relevant":false,"observed":"2026-07-16T15:03:31.098Z","source":"planned"}},{"type":"Feature","geometry":{"type":"Point","coordinates":[-104.931545,39.803666]},"properties":{"id":"OpenTMS-Event34011698259","title":"Various intersection & median work – Vasquez Blvd between I-270 and 64th Ave-139948","type":"Road Construction","roads":"US-6E","chain_law":false,"closure":true,"pass_relevant":false,"observed":"2026-07-16T18:51:49.694Z","source":"planned"}},{"type":"Feature","geometry":{"type":"Point","coordinates":[-104.992706,39.680982]},"properties":{"id":"OpenTMS-Event33981744072","title":"US 85 & West Jewell Ave-136699","type":"Bridge Construction","roads":"US-85S","chain_law":false,"closure":false,"pass_relevant":false,"observed":"2026-07-15T06:05:36.098Z","source":"planned"}},{"type":"Feature","geometry":{"type":"Point","coordinates":[-104.72095,38.838256]},"properties":{"id":"OpenTMS-Event34083084613","title":"Powers Airport Interchange-140341","type":"Road Construction","roads":"US-24W","chain_law":false,"closure":false,"pass_relevant":false,"observed":"2026-07-20T13:03:35.589Z","source":"planned"}},{"type":"Feature","geometry":{"type":"Point","coordinates":[-104.988208,40.00031]},"properties":{"id":"OpenTMS-Event33969811473","title":"I-25 & CO 7 Interim Transit Improvements-139683","type":"Bridge Construction","roads":"CO-7N","chain_law":false,"closure":false,"pass_relevant":false,"observed":"2026-07-14T15:32:38.315Z","source":"planned"}},{"type":"Feature","geometry":{"type":"Point","coordinates":[-104.699362,39.740098]},"properties":{"id":"OpenTMS-Event33981743874","title":"I-70 Aerotropolis Interchange-138101","type":"Bridge Construction","roads":"I-70E","chain_law":false,"closure":true,"pass_relevant":true,"observed":"2026-07-15T06:05:15.797Z","source":"planned"}},{"type":"Feature","geometry":{"type":"Point","coordinates":[-107.911257,39.500229]},"properties":{"id":"OpenTMS-Event34012033574","title":"Paving Operations-139820","type":"Paving Operations","roads":"I-70E","chain_law":false,"closure":true,"pass_relevant":true,"observed":"2026-07-16T19:17:03.224Z","source":"planned"}},{"type":"Feature","geometry":{"type":"Point","coordinates":[-108.578443,37.348712]},"properties":{"id":"OpenTMS-Event34071477984","title":"US 160-140293","type":"Traffic Signal Installation","roads":"US-160E","chain_law":false,"closure":false,"pass_relevant":false,"observed":"2026-07-19T22:23:34.382Z","source":"planned"}},{"type":"Feature","geometry":{"type":"Point","coordinates":[-105.172376,40.758847]},"properties":{"id":"OpenTMS-Event34044885218","title":"US 287 Intersection Improvements-137539","type":"Road Construction","roads":"US-287N","chain_law":false,"closure":true,"pass_relevant":false,"observed":"2026-07-18T13:01:39.042Z","source":"planned"}},{"type":"Feature","geometry":{"type":"Point","coordinates":[-104.975867,39.999804]},"properties":{"id":"OpenTMS-Event34123163420","title":"I-25 & CO 7 Interim Transit Improvements-140421","type":"Bridge Construction","roads":"CO-7S","chain_law":false,"closure":true,"pass_relevant":false,"observed":"2026-07-22T15:04:52.928Z","source":"planned"}},{"type":"Feature","geometry":{"type":"Point","coordinates":[-105.06145,38.992946]},"properties":{"id":"OpenTMS-Event33988487652","title":"CO 67 Capital project-139672","type":"Paving Operations","roads":"CO-67N","chain_law":false,"closure":false,"pass_relevant":false,"observed":"2026-07-15T14:18:49.287Z","source":"planned"}},{"type":"Feature","geometry":{"type":"Point","coordinates":[-107.540076,39.571428]},"properties":{"id":"OpenTMS-Event34121547957","title":"US 6 Elk Creek Bridge Replacement-139607","type":"Bridge Construction","roads":"US-6W","chain_law":false,"closure":false,"pass_relevant":false,"observed":"2026-07-22T13:03:43.645Z","source":"planned"}},{"type":"Feature","geometry":{"type":"Point","coordinates":[-104.757966,39.477557]},"properties":{"id":"OpenTMS-Event34084697321","title":"Parker Sidewalks-139665","type":"Other","roads":"CO-83N","chain_law":false,"closure":true,"pass_relevant":false,"observed":"2026-07-20T15:04:51.123Z","source":"planned"}},{"type":"Feature","geometry":{"type":"Point","coordinates":[-107.303366,39.561917]},"properties":{"id":"OpenTMS-Event34083075215","title":"I-70 Glenwood Canyon bridge joints-138574","type":"Bridge Construction","roads":"I-70E","chain_law":false,"closure":false,"pass_relevant":true,"observed":"2026-07-20T13:02:40.699Z","source":"planned"}},{"type":"Feature","geometry":{"type":"Point","coordinates":[-104.520212,37.124409]},"properties":{"id":"OpenTMS-Event34027419762","title":"Statewide Scales-140148","type":"Road Construction","roads":"I-25N","chain_law":false,"closure":true,"pass_relevant":false,"observed":"2026-07-17T15:32:39.471Z","source":"planned"}},{"type":"Feature","geometry":{"type":"Point","coordinates":[-105.431267,39.742494]},"properties":{"id":"OpenTMS-Event34013599908","title":"I-70 Floyd Hill Project - WO 07/19/26-140079","type":"Road Construction","roads":"US-40E","chain_law":false,"closure":false,"pass_relevant":true,"observed":"2026-07-16T21:15:06.311Z","source":"planned"}},{"type":"Feature","geometry":{"type":"Point","coordinates":[-105.43107,39.737501]},"properties":{"id":"OpenTMS-Event34013176633","title":"I-70 Floyd Hill Project - WO 07/19/26-139974","type":"Road Construction","roads":"I-70E","chain_law":false,"closure":true,"pass_relevant":true,"observed":"2026-07-16T21:15:01.670Z","source":"planned"}},{"type":"Feature","geometry":{"type":"Point","coordinates":[-105.367538,39.713407]},"properties":{"id":"OpenTMS-Event34013519897","title":"R2 - I-70 Chain Station Technology & Communications Upgrades-140062","type":"Other","roads":"I-70W","chain_law":true,"closure":true,"pass_relevant":true,"observed":"2026-07-16T21:09:35.723Z","source":"planned"}},{"type":"Feature","geometry":{"type":"Point","coordinates":[-105.028843,39.573336]},"properties":{"id":"OpenTMS-Event33961938831","title":"Santa Fe Drive Mineral Ave Operational Improvements-135427","type":"Road Construction","roads":"US-85S","chain_law":false,"closure":true,"pass_relevant":false,"observed":"2026-07-14T06:01:26.049Z","source":"planned"}},{"type":"Feature","geometry":{"type":"Point","coordinates":[-105.172376,40.758847]},"properties":{"id":"OpenTMS-Event34025832110","title":"US 287 Intersection Improvements-137538","type":"Road Construction","roads":"US-287N","chain_law":false,"closure":true,"pass_relevant":false,"observed":"2026-07-17T13:18:38.171Z","source":"planned"}},{"type":"Feature","geometry":{"type":"Point","coordinates":[-105.06145,38.992946]},"properties":{"id":"OpenTMS-Event34026652118","title":"CO 67 Capital project-139674","type":"Paving Operations","roads":"CO-67N","chain_law":false,"closure":false,"pass_relevant":false,"observed":"2026-07-17T14:19:41.458Z","source":"planned"}},{"type":"Feature","geometry":{"type":"Point","coordinates":[-104.613619,38.409941]},"properties":{"id":"OpenTMS-Event33978434558","title":"I-25 Cable Rail Installation-139745","type":"Guardrail","roads":"I-25N","chain_law":false,"closure":true,"pass_relevant":false,"observed":"2026-07-17T14:36:02.895Z","source":"planned"}},{"type":"Feature","geometry":{"type":"Point","coordinates":[-105.144584,39.584068]},"properties":{"id":"OpenTMS-Event34008911076","title":"C-470 Resurfacing-139932","type":"Road Construction","roads":"CO-470E","chain_law":false,"closure":false,"pass_relevant":false,"observed":"2026-07-21T21:28:06.632Z","source":"planned"}},{"type":"Feature","geometry":{"type":"Point","coordinates":[-104.699362,39.740098]},"properties":{"id":"OpenTMS-Event34077590842","title":"I-70 Aerotropolis Interchange-138106","type":"Bridge Construction","roads":"I-70E","chain_law":false,"closure":true,"pass_relevant":true,"observed":"2026-07-20T06:08:29.036Z","source":"planned"}},{"type":"Feature","geometry":{"type":"Point","coordinates":[-105.946564,39.677027]},"properties":{"id":"OpenTMS-Event33978420943","title":"EJMT Tunnel Inspections-138470","type":"Tunnel Maintenance","roads":"I-70W","chain_law":false,"closure":true,"pass_relevant":true,"observed":"2026-07-15T02:02:23.911Z","source":"planned"}},{"type":"Feature","geometry":{"type":"Point","coordinates":[-104.992239,39.684248]},"properties":{"id":"OpenTMS-Event33961952635","title":"US 85 & West Jewell Ave-129513","type":"Bridge Construction","roads":"US-85S","chain_law":false,"closure":true,"pass_relevant":false,"observed":"2026-07-14T06:02:25.825Z","source":"planned"}},{"type":"Feature","geometry":{"type":"Point","coordinates":[-105.266408,40.870451]},"properties":{"id":"OpenTMS-Event34102325904","title":"US 287 Intersection Improvements-138447","type":"Road Construction","roads":"US-287N","chain_law":false,"closure":true,"pass_relevant":true,"observed":"2026-07-21T13:10:53.221Z","source":"planned"}},{"type":"Feature","geometry":{"type":"Point","coordinates":[-104.975945,39.999658]},"properties":{"id":"OpenTMS-Event34090558292","title":"I-25 & CO 7 Interim Transit Improvements-140414","type":"Bridge Construction","roads":"CO-7N","chain_law":false,"closure":true,"pass_relevant":false,"observed":"2026-07-20T22:27:05.135Z","source":"planned"}},{"type":"Feature","geometry":{"type":"Point","coordinates":[-104.975867,39.999804]},"properties":{"id":"OpenTMS-Event34090558311","title":"I-25 & CO 7 Interim Transit Improvements-140418","type":"Bridge Construction","roads":"CO-7S","chain_law":false,"closure":true,"pass_relevant":false,"observed":"2026-07-20T22:27:05.859Z","source":"planned"}},{"type":"Feature","geometry":{"type":"Point","coordinates":[-104.868365,39.537249]},"properties":{"id":"OpenTMS-Event33454131159","title":"I-25 Lone Tree Mobility Hub -137022","type":"Other","roads":"I-25N","chain_law":false,"closure":false,"pass_relevant":false,"observed":"2026-07-08T17:06:55.261Z","source":"planned"}},{"type":"Feature","geometry":{"type":"Point","coordinates":[-107.247504,40.497195]},"properties":{"id":"OpenTMS-Event34083075022","title":"US 40 over Shelton Ditch-138279","type":"Road Construction","roads":"US-40W","chain_law":false,"closure":false,"pass_relevant":false,"observed":"2026-07-20T13:02:38.330Z","source":"planned"}},{"type":"Feature","geometry":{"type":"Point","coordinates":[-104.988208,40.00031]},"properties":{"id":"OpenTMS-Event33992784179","title":"I-25 & CO 7 Interim Transit Improvements-139848","type":"Traffic Signal Installation","roads":"CO-7N","chain_law":false,"closure":true,"pass_relevant":false,"observed":"2026-07-15T19:34:42.447Z","source":"planned"}},{"type":"Feature","geometry":{"type":"Point","coordinates":[-104.833272,38.867223]},"properties":{"id":"OpenTMS-Event34085377212","title":"I-25 Acceleration/De-Acceleration Lane from Garden of the Gods Road to Fillmore-140378","type":"Road Construction","roads":"I-25N","chain_law":false,"closure":false,"pass_relevant":false,"observed":"2026-07-20T15:55:55.605Z","source":"planned"}},{"type":"Feature","geometry":{"type":"Point","coordinates":[-105.028843,39.573336]},"properties":{"id":"OpenTMS-Event34039277080","title":"Santa Fe Drive Mineral Ave Operational Improvements-135431","type":"Road Construction","roads":"US-85S","chain_law":false,"closure":true,"pass_relevant":false,"observed":"2026-07-18T06:02:36.326Z","source":"planned"}},{"type":"Feature","geometry":{"type":"Point","coordinates":[-105.032631,39.565213]},"properties":{"id":"OpenTMS-Event30959251012","title":"(DR) - U.S. 85B (SANTA FE) Right Turn lane Closure-126885","type":"Bridge Repair","roads":"(DR) - U.S. 85B (SANTA FE) ","chain_law":false,"closure":true,"pass_relevant":false,"observed":"2026-07-16T16:39:47.925Z","source":"planned"}},{"type":"Feature","geometry":{"type":"Point","coordinates":[-104.975945,39.999658]},"properties":{"id":"OpenTMS-Event33992852548","title":"I-25 & CO 7 Interim Transit Improvements-139858","type":"Traffic Signal Installation","roads":"CO-7N","chain_law":false,"closure":true,"pass_relevant":false,"observed":"2026-07-15T19:39:47.474Z","source":"planned"}},{"type":"Feature","geometry":{"type":"Point","coordinates":[-108.578443,37.348712]},"properties":{"id":"OpenTMS-Event34071478001","title":"US 160-140294","type":"Traffic Signal Installation","roads":"US-160E","chain_law":false,"closure":false,"pass_relevant":false,"observed":"2026-07-19T22:23:35.064Z","source":"planned"}},{"type":"Feature","geometry":{"type":"Point","coordinates":[-103.748165,38.207171]},"properties":{"id":"OpenTMS-Event34013806059","title":"Ordway Intersection Project-140102","type":"Road Construction","roads":"CO-71N","chain_law":false,"closure":true,"pass_relevant":false,"observed":"2026-07-16T22:00:21.750Z","source":"planned"}},{"type":"Feature","geometry":{"type":"Point","coordinates":[-105.06145,38.992946]},"properties":{"id":"OpenTMS-Event34008013075","title":"CO 67 Capital project-139673","type":"Paving Operations","roads":"CO-67N","chain_law":false,"closure":false,"pass_relevant":false,"observed":"2026-07-16T14:17:42.056Z","source":"planned"}},{"type":"Feature","geometry":{"type":"Point","coordinates":[-106.248173,39.581298]},"properties":{"id":"OpenTMS-Event34087874561","title":"I-70 West Vail Pass – Traffic Holds-140399","type":"Rock Work","roads":"I-70W","chain_law":false,"closure":false,"pass_relevant":true,"observed":"2026-07-20T19:04:13.110Z","source":"planned"}},{"type":"Feature","geometry":{"type":"Point","coordinates":[-104.661869,38.251747]},"properties":{"id":"OpenTMS-Event34109643462","title":"Backplate project -140590","type":"Traffic Signal Installation","roads":"CO-45N","chain_law":false,"closure":false,"pass_relevant":false,"observed":"2026-07-21T22:18:07.247Z","source":"planned"}},{"type":"Feature","geometry":{"type":"Point","coordinates":[-105.09939,40.203276]},"properties":{"id":"OpenTMS-Event34072078910","title":"US 36/CO 66-140320","type":"IT or Fiber Optics","roads":"CO-66W","chain_law":false,"closure":true,"pass_relevant":false,"observed":"2026-07-19T23:08:57.012Z","source":"planned"}},{"type":"Feature","geometry":{"type":"Point","coordinates":[-105.172376,40.758847]},"properties":{"id":"OpenTMS-Event34064076164","title":"US 287 Intersection Improvements-137540","type":"Road Construction","roads":"US-287N","chain_law":false,"closure":true,"pass_relevant":false,"observed":"2026-07-19T13:05:29.034Z","source":"planned"}},{"type":"Feature","geometry":{"type":"Point","coordinates":[-106.964908,39.653831]},"properties":{"id":"OpenTMS-Event34012166882","title":"Paving Operations-139938","type":"Paving Operations","roads":"I-70E","chain_law":false,"closure":true,"pass_relevant":false,"observed":"2026-07-16T19:27:00.619Z","source":"planned"}},{"type":"Feature","geometry":{"type":"Point","coordinates":[-104.833272,38.867223]},"properties":{"id":"OpenTMS-Event34085043212","title":"I-25 Acceleration/De-Acceleration Lane from Garden of the Gods Road to Fillmore-140172","type":"Road Construction","roads":"I-25N","chain_law":false,"closure":true,"pass_relevant":false,"observed":"2026-07-20T15:31:07.127Z","source":"planned"}},{"type":"Feature","geometry":{"type":"Point","coordinates":[-104.980924,40.013279]},"properties":{"id":"OpenTMS-Event33998119406","title":"I-25 & CO 7 Interim Transit Improvements-139840","type":"Bridge Construction","roads":"I-25S","chain_law":false,"closure":false,"pass_relevant":false,"observed":"2026-07-16T02:06:08.273Z","source":"planned"}},{"type":"Feature","geometry":{"type":"Point","coordinates":[-104.975945,39.999658]},"properties":{"id":"OpenTMS-Event33998119706","title":"I-25 & CO 7 Interim Transit Improvements-139859","type":"Traffic Signal Installation","roads":"CO-7N","chain_law":false,"closure":true,"pass_relevant":false,"observed":"2026-07-16T02:06:19.616Z","source":"planned"}},{"type":"Feature","geometry":{"type":"Point","coordinates":[-107.02208,37.267127]},"properties":{"id":"OpenTMS-Event34035244311","title":"US 160 Pagosa Springs Reconstruction-139088","type":"Road Construction","roads":"US-160W","chain_law":false,"closure":true,"pass_relevant":false,"observed":"2026-07-18T01:01:31.063Z","source":"planned"}},{"type":"Feature","geometry":{"type":"Point","coordinates":[-105.028843,39.573336]},"properties":{"id":"OpenTMS-Event34077590767","title":"Santa Fe Drive Mineral Ave Operational Improvements-135433","type":"Road Construction","roads":"US-85S","chain_law":false,"closure":true,"pass_relevant":false,"observed":"2026-07-20T06:08:22.275Z","source":"planned"}},{"type":"Feature","geometry":{"type":"Point","coordinates":[-105.696342,39.716704]},"properties":{"id":"OpenTMS-Event34013519559","title":"R2 - I-70 Chain Station Technology & Communications Upgrades-140047","type":"Other","roads":"I-70E","chain_law":true,"closure":true,"pass_relevant":true,"observed":"2026-07-16T21:09:27.923Z","source":"planned"}},{"type":"Feature","geometry":{"type":"Point","coordinates":[-104.975867,39.999804]},"properties":{"id":"OpenTMS-Event33992852630","title":"I-25 & CO 7 Interim Transit Improvements-139863","type":"Traffic Signal Installation","roads":"CO-7S","chain_law":false,"closure":true,"pass_relevant":false,"observed":"2026-07-15T19:39:50.140Z","source":"planned"}},{"type":"Feature","geometry":{"type":"Point","coordinates":[-104.975867,39.999804]},"properties":{"id":"OpenTMS-Event34090558330","title":"I-25 & CO 7 Interim Transit Improvements-140419","type":"Bridge Construction","roads":"CO-7S","chain_law":false,"closure":true,"pass_relevant":false,"observed":"2026-07-20T22:27:06.676Z","source":"planned"}},{"type":"Feature","geometry":{"type":"Point","coordinates":[-108.354255,39.106075]},"properties":{"id":"OpenTMS-Event34012559365","title":"US 6 Palisade Intersection Improvements-139568","type":"Road Construction","roads":"US-6E","chain_law":false,"closure":false,"pass_relevant":false,"observed":"2026-07-16T19:57:38.933Z","source":"planned"}},{"type":"Feature","geometry":{"type":"Point","coordinates":[-108.578443,37.348712]},"properties":{"id":"OpenTMS-Event34071477967","title":"US 160-140292","type":"Traffic Signal Installation","roads":"US-160E","chain_law":false,"closure":false,"pass_relevant":false,"observed":"2026-07-19T22:23:33.755Z","source":"planned"}},{"type":"Feature","geometry":{"type":"Point","coordinates":[-104.992706,39.680982]},"properties":{"id":"OpenTMS-Event34058501612","title":"US 85 & West Jewell Ave-136703","type":"Bridge Construction","roads":"US-85S","chain_law":false,"closure":false,"pass_relevant":false,"observed":"2026-07-19T06:05:09.901Z","source":"planned"}},{"type":"Feature","geometry":{"type":"Point","coordinates":[-107.303366,39.561917]},"properties":{"id":"OpenTMS-Event34064069356","title":"I-70 Glenwood Canyon bridge joints-138573","type":"Bridge Construction","roads":"I-70E","chain_law":false,"closure":false,"pass_relevant":true,"observed":"2026-07-19T13:04:47.843Z","source":"planned"}},{"type":"Feature","geometry":{"type":"Point","coordinates":[-105.06145,38.992946]},"properties":{"id":"OpenTMS-Event34105160437","title":"CO 67 Capital project-140438","type":"Paving Operations","roads":"CO-67N","chain_law":false,"closure":false,"pass_relevant":false,"observed":"2026-07-21T16:44:02.307Z","source":"planned"}},{"type":"Feature","geometry":{"type":"Point","coordinates":[-104.325544,39.026269]},"properties":{"id":"OpenTMS-Event34016567074","title":"New Project: 26310 - US 24 Resurfacing from Peyton to Calhan-140112","type":"Paving Operations","roads":"US-24W","chain_law":false,"closure":false,"pass_relevant":false,"observed":"2026-07-17T01:50:30.391Z","source":"planned"}},{"type":"Feature","geometry":{"type":"Point","coordinates":[-106.111615,39.578561]},"properties":{"id":"OpenTMS-Event33961945598","title":"Frisco I-70 CO 9 Exit -137939","type":"Road Construction","roads":"I-70E","chain_law":false,"closure":true,"pass_relevant":true,"observed":"2026-07-14T06:01:45.559Z","source":"planned"}},{"type":"Feature","geometry":{"type":"Point","coordinates":[-107.247504,40.497195]},"properties":{"id":"OpenTMS-Event34006971303","title":"US 40 over Shelton Ditch-138277","type":"Road Construction","roads":"US-40W","chain_law":false,"closure":false,"pass_relevant":false,"observed":"2026-07-16T13:00:56.139Z","source":"planned"}},{"type":"Feature","geometry":{"type":"Point","coordinates":[-108.62087,39.072603]},"properties":{"id":"OpenTMS-Event34070340234","title":"CO 340-140224","type":"Road Construction","roads":"CO-340E","chain_law":false,"closure":false,"pass_relevant":false,"observed":"2026-07-19T20:57:13.303Z","source":"planned"}},{"type":"Feature","geometry":{"type":"Point","coordinates":[-104.757966,39.477557]},"properties":{"id":"OpenTMS-Event34065699592","title":"Parker Sidewalks-139664","type":"Other","roads":"CO-83N","chain_law":false,"closure":true,"pass_relevant":false,"observed":"2026-07-19T15:06:46.659Z","source":"planned"}},{"type":"Feature","geometry":{"type":"Point","coordinates":[-107.86669,37.233631]},"properties":{"id":"OpenTMS-Event34012033176","title":"Paving Operations-139784","type":"Paving Operations","roads":"US-160E","chain_law":false,"closure":true,"pass_relevant":false,"observed":"2026-07-16T19:16:53.976Z","source":"planned"}},{"type":"Feature","geometry":{"type":"Point","coordinates":[-109.024852,40.866113]},"properties":{"id":"OpenTMS-Event33734873792","title":"CO-318 Browns Park Culvert Replacement-138684","type":"Culvert Maintenance","roads":"CO-318W","chain_law":false,"closure":false,"pass_relevant":false,"observed":"2026-07-16T20:02:51.690Z","source":"planned"}},{"type":"Feature","geometry":{"type":"Point","coordinates":[-105.248099,40.212195]},"properties":{"id":"OpenTMS-Event34072079094","title":"US 36/CO 66-140324","type":"IT or Fiber Optics","roads":"CO-66E","chain_law":false,"closure":false,"pass_relevant":false,"observed":"2026-07-19T23:09:00.635Z","source":"planned"}},{"type":"Feature","geometry":{"type":"Point","coordinates":[-108.978957,39.207788]},"properties":{"id":"OpenTMS-Event34071610038","title":"I-70 culvert-140309","type":"Culvert Maintenance","roads":"I-70E","chain_law":false,"closure":true,"pass_relevant":true,"observed":"2026-07-19T22:33:20.754Z","source":"planned"}},{"type":"Feature","geometry":{"type":"Point","coordinates":[-104.872022,39.508432]},"properties":{"id":"OpenTMS-Event33967787815","title":"PASE ENVIROMENTAL / PWQ / TASK ORDER # 52-136594","type":"Other","roads":"I-25S","chain_law":false,"closure":true,"pass_relevant":false,"observed":"2026-07-14T13:05:16.354Z","source":"planned"}},{"type":"Feature","geometry":{"type":"Point","coordinates":[-105.172376,40.758847]},"properties":{"id":"OpenTMS-Event34006991722","title":"US 287 Intersection Improvements-137537","type":"Road Construction","roads":"US-287N","chain_law":false,"closure":true,"pass_relevant":false,"observed":"2026-07-16T13:02:19.122Z","source":"planned"}},{"type":"Feature","geometry":{"type":"Point","coordinates":[-105.007442,39.740279]},"properties":{"id":"OpenTMS-Event34096640892","title":"Colfax Downtown Rail Reconstruction Part 2-136083","type":"Road Construction","roads":"US-40W","chain_law":false,"closure":true,"pass_relevant":false,"observed":"2026-07-21T06:05:07.507Z","source":"planned"}},{"type":"Feature","geometry":{"type":"Point","coordinates":[-104.606849,39.361574]},"properties":{"id":"OpenTMS-Event34017273536","title":"25632 - CO 86 Resurfacing in Elizabeth-140136","type":"Paving Operations","roads":"CO-86W","chain_law":false,"closure":false,"pass_relevant":false,"observed":"2026-07-17T02:43:07.155Z","source":"planned"}},{"type":"Feature","geometry":{"type":"Point","coordinates":[-104.965056,39.779907]},"properties":{"id":"OpenTMS-Event34093405789","title":"FLS Sprinkler Testing-139718","type":"Tunnel Maintenance","roads":"(C) - BRIGHTON BLVD","chain_law":false,"closure":true,"pass_relevant":false,"observed":"2026-07-21T02:01:34.845Z","source":"planned"}},{"type":"Feature","geometry":{"type":"Point","coordinates":[-106.311793,39.361609]},"properties":{"id":"OpenTMS-Event34013318166","title":"Road Construction-139993","type":"Road Construction","roads":"US-24E","chain_law":false,"closure":false,"pass_relevant":false,"observed":"2026-07-16T20:54:37.449Z","source":"planned"}},{"type":"Feature","geometry":{"type":"Point","coordinates":[-106.044535,39.640308]},"properties":{"id":"OpenTMS-Event34064069384","title":"I-70 Straight Creek Culvert Repairs-138546","type":"Culvert Maintenance","roads":"I-70W","chain_law":false,"closure":false,"pass_relevant":true,"observed":"2026-07-19T13:04:50.220Z","source":"planned"}},{"type":"Feature","geometry":{"type":"Point","coordinates":[-106.304065,39.642991]},"properties":{"id":"OpenTMS-Event33994796195","title":"I-70 West Vail Pass — Lane Closures-139905","type":"Road Construction","roads":"I-70W","chain_law":false,"closure":true,"pass_relevant":true,"observed":"2026-07-15T22:02:34.702Z","source":"planned"}},{"type":"Feature","geometry":{"type":"Point","coordinates":[-103.896743,37.713543]},"properties":{"id":"OpenTMS-Event34013805929","title":"Timber Bridge Rehabilitation -140091","type":"Road Construction","roads":"US-350E","chain_law":false,"closure":true,"pass_relevant":false,"observed":"2026-07-16T22:00:17.388Z","source":"planned"}},{"type":"Feature","geometry":{"type":"Point","coordinates":[-105.234263,39.698286]},"properties":{"id":"OpenTMS-Event34109367842","title":"I-70 Resurfacing - Chief Hosa to Colfax-140556","type":"IT or Fiber Optics","roads":"I-70E","chain_law":false,"closure":true,"pass_relevant":true,"observed":"2026-07-21T22:18:29.862Z","source":"planned"}},{"type":"Feature","geometry":{"type":"Point","coordinates":[-104.678607,39.740161]},"properties":{"id":"OpenTMS-Event33981743857","title":"I-70 Aerotropolis Interchange-138132","type":"Bridge Construction","roads":"I-70W","chain_law":false,"closure":true,"pass_relevant":true,"observed":"2026-07-15T06:05:14.264Z","source":"planned"}},{"type":"Feature","geometry":{"type":"Point","coordinates":[-105.460455,39.746457]},"properties":{"id":"OpenTMS-Event34013526493","title":"I-70 Floyd Hill Project - WO 07/19/26-140003","type":"Road Construction","roads":"I-70W","chain_law":false,"closure":false,"pass_relevant":true,"observed":"2026-07-16T21:15:16.537Z","source":"planned"}},{"type":"Feature","geometry":{"type":"Point","coordinates":[-105.861553,37.469713]},"properties":{"id":"OpenTMS-Event34124243649","title":"South Central Colorado Bridge Preventative Maintenance-140598","type":"Bridge Maintenance Operations","roads":"US-160E","chain_law":false,"closure":true,"pass_relevant":false,"observed":"2026-07-22T16:25:51.035Z","source":"planned"}},{"type":"Feature","geometry":{"type":"Point","coordinates":[-105.144584,39.584068]},"properties":{"id":"OpenTMS-Event34008911059","title":"C-470 Resurfacing-139931","type":"Road Construction","roads":"CO-470E","chain_law":false,"closure":false,"pass_relevant":false,"observed":"2026-07-21T21:28:06.202Z","source":"planned"}},{"type":"Feature","geometry":{"type":"Point","coordinates":[-107.02208,37.267127]},"properties":{"id":"OpenTMS-Event34015930504","title":"US 160 Pagosa Springs Reconstruction-139087","type":"Road Construction","roads":"US-160W","chain_law":false,"closure":true,"pass_relevant":false,"observed":"2026-07-17T01:03:03.865Z","source":"planned"}},{"type":"Feature","geometry":{"type":"Point","coordinates":[-104.965056,39.779907]},"properties":{"id":"OpenTMS-Event34074422483","title":"FLS Sprinkler Testing-139716","type":"Tunnel Maintenance","roads":"(C) - BRIGHTON BLVD","chain_law":false,"closure":true,"pass_relevant":false,"observed":"2026-07-20T02:05:13.535Z","source":"planned"}},{"type":"Feature","geometry":{"type":"Point","coordinates":[-108.069294,38.756289]},"properties":{"id":"OpenTMS-Event34102319288","title":"US 50 Delta Resurfacing-138526","type":"Paving Operations","roads":"US-50E","chain_law":false,"closure":false,"pass_relevant":false,"observed":"2026-07-21T13:10:19.937Z","source":"planned"}},{"type":"Feature","geometry":{"type":"Point","coordinates":[-102.945238,39.281356]},"properties":{"id":"OpenTMS-Event33990564038","title":"I-70 Seibert-Stratton Roadway Improvements-139794","type":"Bridge Construction","roads":"I-70E","chain_law":false,"closure":true,"pass_relevant":true,"observed":"2026-07-15T16:51:11.770Z","source":"planned"}},{"type":"Feature","geometry":{"type":"Point","coordinates":[-104.987824,39.985312]},"properties":{"id":"OpenTMS-Event33992302833","title":"I-25 & CO 7 Interim Transit Improvements-139834","type":"Bridge Construction","roads":"I-25N","chain_law":false,"closure":false,"pass_relevant":false,"observed":"2026-07-15T18:59:12.072Z","source":"planned"}},{"type":"Feature","geometry":{"type":"Point","coordinates":[-106.009184,37.092952]},"properties":{"id":"OpenTMS-Event34012553191","title":"Southwest CO Culvert Repairs-139969","type":"Culvert Maintenance","roads":"US-285N","chain_law":false,"closure":false,"pass_relevant":false,"observed":"2026-07-16T19:57:33.636Z","source":"planned"}},{"type":"Feature","geometry":{"type":"Point","coordinates":[-104.833272,38.867223]},"properties":{"id":"OpenTMS-Event34085043147","title":"I-25 Acceleration/De-Acceleration Lane from Garden of the Gods Road to Fillmore-140175","type":"Road Construction","roads":"I-25N","chain_law":false,"closure":true,"pass_relevant":false,"observed":"2026-07-20T15:31:04.044Z","source":"planned"}},{"type":"Feature","geometry":{"type":"Point","coordinates":[-108.585901,39.065943]},"properties":{"id":"OpenTMS-Event33595181562","title":"CO 340 Resurfacing -137791","type":"Bridge Repair","roads":"CO-340E","chain_law":false,"closure":true,"pass_relevant":false,"observed":"2026-07-08T15:41:23.120Z","source":"planned"}},{"type":"Feature","geometry":{"type":"Point","coordinates":[-107.86669,37.233631]},"properties":{"id":"OpenTMS-Event34012033254","title":"Paving Operations-139786","type":"Paving Operations","roads":"US-160E","chain_law":false,"closure":true,"pass_relevant":false,"observed":"2026-07-16T19:16:54.958Z","source":"planned"}},{"type":"Feature","geometry":{"type":"Point","coordinates":[-104.325544,39.026269]},"properties":{"id":"OpenTMS-Event34016567058","title":"New Project: 26310 - US 24 Resurfacing from Peyton to Calhan-140111","type":"Paving Operations","roads":"US-24W","chain_law":false,"closure":false,"pass_relevant":false,"observed":"2026-07-17T01:50:30.033Z","source":"planned"}},{"type":"Feature","geometry":{"type":"Point","coordinates":[-108.630364,39.102654]},"properties":{"id":"OpenTMS-Event33598052259","title":"I-70B East of Third Street Improvements-137849","type":"Road Construction","roads":"CO-70E","chain_law":false,"closure":true,"pass_relevant":true,"observed":"2026-07-08T17:11:50.012Z","source":"planned"}},{"type":"Feature","geometry":{"type":"Point","coordinates":[-105.293969,39.742238]},"properties":{"id":"OpenTMS-Event33993062914","title":"Work Element Highway US 6-139879","type":"Road Construction","roads":"US-6E","chain_law":false,"closure":true,"pass_relevant":false,"observed":"2026-07-15T19:55:15.557Z","source":"planned"}},{"type":"Feature","geometry":{"type":"Point","coordinates":[-107.247504,40.497195]},"properties":{"id":"OpenTMS-Event34121541413","title":"US 40 over Shelton Ditch-138281","type":"Road Construction","roads":"US-40W","chain_law":false,"closure":false,"pass_relevant":false,"observed":"2026-07-22T13:03:28.895Z","source":"planned"}},{"type":"Feature","geometry":{"type":"Point","coordinates":[-107.179501,40.491294]},"properties":{"id":"OpenTMS-Event33977585882","title":"US 40 Milner Resurfacing-138304","type":"Road Construction","roads":"US-40W","chain_law":false,"closure":false,"pass_relevant":false,"observed":"2026-07-15T01:01:09.117Z","source":"planned"}},{"type":"Feature","geometry":{"type":"Point","coordinates":[-104.678607,39.740161]},"properties":{"id":"OpenTMS-Event33961945704","title":"I-70 Aerotropolis Interchange-138131","type":"Bridge Construction","roads":"I-70W","chain_law":false,"closure":true,"pass_relevant":true,"observed":"2026-07-14T06:01:57.940Z","source":"planned"}},{"type":"Feature","geometry":{"type":"Point","coordinates":[-105.43107,39.737501]},"properties":{"id":"OpenTMS-Event34013176769","title":"I-70 Floyd Hill Project - WO 07/19/26-139975","type":"Road Construction","roads":"I-70E","chain_law":false,"closure":true,"pass_relevant":true,"observed":"2026-07-16T21:15:09.458Z","source":"planned"}},{"type":"Feature","geometry":{"type":"Point","coordinates":[-107.303366,39.561917]},"properties":{"id":"OpenTMS-Event33987429905","title":"I-70 Glenwood Canyon bridge joints-138571","type":"Bridge Construction","roads":"I-70E","chain_law":false,"closure":false,"pass_relevant":true,"observed":"2026-07-15T13:01:11.190Z","source":"planned"}},{"type":"Feature","geometry":{"type":"Point","coordinates":[-107.911257,39.500229]},"properties":{"id":"OpenTMS-Event34012033592","title":"Paving Operations-139821","type":"Paving Operations","roads":"I-70E","chain_law":false,"closure":true,"pass_relevant":true,"observed":"2026-07-16T19:17:03.823Z","source":"planned"}},{"type":"Feature","geometry":{"type":"Point","coordinates":[-105.612759,38.26572]},"properties":{"id":"OpenTMS-Event34012309097","title":"CO 69 Resurfacing Hillside to Texas Creek-139960","type":"Paving Operations","roads":"CO-69N","chain_law":false,"closure":false,"pass_relevant":false,"observed":"2026-07-16T19:37:21.170Z","source":"planned"}},{"type":"Feature","geometry":{"type":"Point","coordinates":[-105.696342,39.716704]},"properties":{"id":"OpenTMS-Event34013519576","title":"R2 - I-70 Chain Station Technology & Communications Upgrades-140048","type":"Other","roads":"I-70E","chain_law":true,"closure":true,"pass_relevant":true,"observed":"2026-07-16T21:09:28.417Z","source":"planned"}},{"type":"Feature","geometry":{"type":"Point","coordinates":[-107.247504,40.497195]},"properties":{"id":"OpenTMS-Event34064069329","title":"US 40 over Shelton Ditch-138278","type":"Road Construction","roads":"US-40W","chain_law":false,"closure":false,"pass_relevant":false,"observed":"2026-07-19T13:04:45.576Z","source":"planned"}},{"type":"Feature","geometry":{"type":"Point","coordinates":[-105.873388,39.995364]},"properties":{"id":"OpenTMS-Event34013519153","title":"Guardrail-139983","type":"Guardrail","roads":"US-40E","chain_law":false,"closure":false,"pass_relevant":false,"observed":"2026-07-16T21:09:16.149Z","source":"planned"}},{"type":"Feature","geometry":{"type":"Point","coordinates":[-104.827637,38.903604]},"properties":{"id":"OpenTMS-Event34085377157","title":"I-25 Acceleration/De-Acceleration Lane from Garden of the Gods Road to Fillmore-140383","type":"Road Construction","roads":"I-25S","chain_law":false,"closure":false,"pass_relevant":false,"observed":"2026-07-20T15:55:54.669Z","source":"planned"}},{"type":"Feature","geometry":{"type":"Point","coordinates":[-104.986589,39.854237]},"properties":{"id":"OpenTMS-Event33977585795","title":"I-25 Segment 2 | Pre-construction Activities-134829","type":"Other","roads":"I-25N","chain_law":false,"closure":true,"pass_relevant":false,"observed":"2026-07-15T01:01:05.983Z","source":"planned"}},{"type":"Feature","geometry":{"type":"Point","coordinates":[-106.305339,39.643549]},"properties":{"id":"OpenTMS-Event33994796160","title":"I-70 West Vail Pass — Lane Closures-139904","type":"Road Construction","roads":"I-70W","chain_law":false,"closure":true,"pass_relevant":true,"observed":"2026-07-15T22:02:33.364Z","source":"planned"}},{"type":"Feature","geometry":{"type":"Point","coordinates":[-104.827637,38.903604]},"properties":{"id":"OpenTMS-Event34085377115","title":"I-25 Acceleration/De-Acceleration Lane from Garden of the Gods Road to Fillmore-140386","type":"Road Construction","roads":"I-25S","chain_law":false,"closure":false,"pass_relevant":false,"observed":"2026-07-20T15:55:53.735Z","source":"planned"}},{"type":"Feature","geometry":{"type":"Point","coordinates":[-103.748165,38.207171]},"properties":{"id":"OpenTMS-Event34013806044","title":"Ordway Intersection Project-140101","type":"Road Construction","roads":"CO-71N","chain_law":false,"closure":true,"pass_relevant":false,"observed":"2026-07-16T22:00:21.286Z","source":"planned"}},{"type":"Feature","geometry":{"type":"Point","coordinates":[-107.911257,39.500229]},"properties":{"id":"OpenTMS-Event34012033411","title":"Paving Operations-139815","type":"Paving Operations","roads":"I-70E","chain_law":false,"closure":true,"pass_relevant":true,"observed":"2026-07-16T19:16:59.205Z","source":"planned"}},{"type":"Feature","geometry":{"type":"Point","coordinates":[-104.699362,39.740098]},"properties":{"id":"OpenTMS-Event34096647422","title":"I-70 Aerotropolis Interchange-138107","type":"Bridge Construction","roads":"I-70E","chain_law":false,"closure":true,"pass_relevant":true,"observed":"2026-07-21T06:05:18.307Z","source":"planned"}},{"type":"Feature","geometry":{"type":"Point","coordinates":[-104.992239,39.684248]},"properties":{"id":"OpenTMS-Event34039277915","title":"US 85 & West Jewell Ave-129517","type":"Bridge Construction","roads":"US-85S","chain_law":false,"closure":true,"pass_relevant":false,"observed":"2026-07-18T06:02:55.070Z","source":"planned"}},{"type":"Feature","geometry":{"type":"Point","coordinates":[-105.819607,39.693106]},"properties":{"id":"OpenTMS-Event34013519474","title":"R2 - I-70 Chain Station Technology & Communications Upgrades-140042","type":"Other","roads":"I-70E","chain_law":true,"closure":true,"pass_relevant":true,"observed":"2026-07-16T21:09:25.482Z","source":"planned"}},{"type":"Feature","geometry":{"type":"Point","coordinates":[-104.325544,39.026269]},"properties":{"id":"OpenTMS-Event34016566952","title":"New Project: 26310 - US 24 Resurfacing from Peyton to Calhan-140117","type":"Paving Operations","roads":"US-24E","chain_law":false,"closure":false,"pass_relevant":false,"observed":"2026-07-17T01:50:28.181Z","source":"planned"}},{"type":"Feature","geometry":{"type":"Point","coordinates":[-104.896235,39.285077]},"properties":{"id":"OpenTMS-Event34074908756","title":"Nighttime I-25 lane closures or bridge work at Crystal Valley Parkway Exit 179-140338","type":"Bridge Construction","roads":"I-25N","chain_law":false,"closure":true,"pass_relevant":false,"observed":"2026-07-21T21:18:07.524Z","source":"planned"}},{"type":"Feature","geometry":{"type":"Point","coordinates":[-105.696559,39.716723]},"properties":{"id":"OpenTMS-Event34013519676","title":"R2 - I-70 Chain Station Technology & Communications Upgrades-140052","type":"Other","roads":"I-70W","chain_law":true,"closure":true,"pass_relevant":true,"observed":"2026-07-16T21:09:30.549Z","source":"planned"}},{"type":"Feature","geometry":{"type":"Point","coordinates":[-107.303366,39.561917]},"properties":{"id":"OpenTMS-Event34006971316","title":"I-70 Glenwood Canyon bridge joints-138572","type":"Bridge Construction","roads":"I-70E","chain_law":false,"closure":false,"pass_relevant":true,"observed":"2026-07-16T13:00:58.696Z","source":"planned"}},{"type":"Feature","geometry":{"type":"Point","coordinates":[-105.061385,38.992778]},"properties":{"id":"OpenTMS-Event34105160524","title":"CO 67 Capital project-140443","type":"Paving Operations","roads":"CO-67S","chain_law":false,"closure":false,"pass_relevant":false,"observed":"2026-07-21T16:44:04.274Z","source":"planned"}},{"type":"Feature","geometry":{"type":"Point","coordinates":[-105.251807,39.665881]},"properties":{"id":"OpenTMS-Event33967787800","title":"CO 74 Resurfacing (Week of 7.20)-139176","type":"Paving Operations","roads":"CO-74E","chain_law":false,"closure":true,"pass_relevant":false,"observed":"2026-07-14T13:05:14.955Z","source":"planned"}},{"type":"Feature","geometry":{"type":"Point","coordinates":[-107.02208,37.267127]},"properties":{"id":"OpenTMS-Event34054497592","title":"US 160 Pagosa Springs Reconstruction-139089","type":"Road Construction","roads":"US-160W","chain_law":false,"closure":true,"pass_relevant":false,"observed":"2026-07-19T01:03:58.419Z","source":"planned"}},{"type":"Feature","geometry":{"type":"Point","coordinates":[-104.606849,39.361574]},"properties":{"id":"OpenTMS-Event34017273652","title":"25632 - CO 86 Resurfacing in Elizabeth-140133","type":"Paving Operations","roads":"CO-86E","chain_law":false,"closure":true,"pass_relevant":false,"observed":"2026-07-17T02:43:10.124Z","source":"planned"}},{"type":"Feature","geometry":{"type":"Point","coordinates":[-105.367584,39.713234]},"properties":{"id":"OpenTMS-Event34013519833","title":"R2 - I-70 Chain Station Technology & Communications Upgrades-140059","type":"Other","roads":"I-70E","chain_law":true,"closure":true,"pass_relevant":true,"observed":"2026-07-16T21:09:34.112Z","source":"planned"}},{"type":"Feature","geometry":{"type":"Point","coordinates":[-104.987824,39.985312]},"properties":{"id":"OpenTMS-Event33998119267","title":"I-25 & CO 7 Interim Transit Improvements-139835","type":"Bridge Construction","roads":"I-25N","chain_law":false,"closure":false,"pass_relevant":false,"observed":"2026-07-16T02:06:06.796Z","source":"planned"}},{"type":"Feature","geometry":{"type":"Point","coordinates":[-104.827637,38.903604]},"properties":{"id":"OpenTMS-Event34085043170","title":"I-25 Acceleration/De-Acceleration Lane from Garden of the Gods Road to Fillmore-140168","type":"Road Construction","roads":"I-25S","chain_law":false,"closure":true,"pass_relevant":false,"observed":"2026-07-20T15:31:04.560Z","source":"planned"}},{"type":"Feature","geometry":{"type":"Point","coordinates":[-106.305339,39.643549]},"properties":{"id":"OpenTMS-Event34087868208","title":"I-70 West Vail Pass — Lane Closures-140387","type":"Road Construction","roads":"I-70W","chain_law":false,"closure":true,"pass_relevant":true,"observed":"2026-07-20T19:04:07.316Z","source":"planned"}},{"type":"Feature","geometry":{"type":"Point","coordinates":[-106.044535,39.640308]},"properties":{"id":"OpenTMS-Event34121542554","title":"I-70 Straight Creek Culvert Repairs-138549","type":"Culvert Maintenance","roads":"I-70W","chain_law":false,"closure":false,"pass_relevant":true,"observed":"2026-07-22T13:03:34.889Z","source":"planned"}},{"type":"Feature","geometry":{"type":"Point","coordinates":[-105.172376,40.758847]},"properties":{"id":"OpenTMS-Event34083075478","title":"US 287 Intersection Improvements-137541","type":"Road Construction","roads":"US-287N","chain_law":false,"closure":true,"pass_relevant":false,"observed":"2026-07-20T13:03:02.016Z","source":"planned"}},{"type":"Feature","geometry":{"type":"Point","coordinates":[-104.818951,37.608013]},"properties":{"id":"OpenTMS-Event34110612822","title":"Road Construction-140446","type":"Road Construction","roads":"US-160E","chain_law":false,"closure":true,"pass_relevant":false,"observed":"2026-07-21T23:29:49.447Z","source":"planned"}},{"type":"Feature","geometry":{"type":"Point","coordinates":[-108.572709,37.348814]},"properties":{"id":"OpenTMS-Event34071477759","title":"US 160-140282","type":"Traffic Signal Installation","roads":"US-160E","chain_law":false,"closure":true,"pass_relevant":false,"observed":"2026-07-19T22:23:28.031Z","source":"planned"}},{"type":"Feature","geometry":{"type":"Point","coordinates":[-104.757966,39.477557]},"properties":{"id":"OpenTMS-Event34123150275","title":"Parker Sidewalks-139667","type":"Other","roads":"CO-83N","chain_law":false,"closure":true,"pass_relevant":false,"observed":"2026-07-22T15:04:02.198Z","source":"planned"}},{"type":"Feature","geometry":{"type":"Point","coordinates":[-108.578443,37.348712]},"properties":{"id":"OpenTMS-Event34071478018","title":"US 160-140295","type":"Traffic Signal Installation","roads":"US-160E","chain_law":false,"closure":false,"pass_relevant":false,"observed":"2026-07-19T22:23:35.711Z","source":"planned"}},{"type":"Feature","geometry":{"type":"Point","coordinates":[-104.975867,39.999804]},"properties":{"id":"OpenTMS-Event33989115327","title":"I-25 & CO 7 Interim Transit Improvements-139699","type":"Bridge Construction","roads":"CO-7S","chain_law":false,"closure":true,"pass_relevant":false,"observed":"2026-07-15T15:04:42.331Z","source":"planned"}},{"type":"Feature","geometry":{"type":"Point","coordinates":[-105.028843,39.573336]},"properties":{"id":"OpenTMS-Event34001323529","title":"Santa Fe Drive Mineral Ave Operational Improvements-135429","type":"Road Construction","roads":"US-85S","chain_law":false,"closure":true,"pass_relevant":false,"observed":"2026-07-16T06:03:27.328Z","source":"planned"}},{"type":"Feature","geometry":{"type":"Point","coordinates":[-104.952579,37.5535]},"properties":{"id":"OpenTMS-Event34110612929","title":"Road Construction-140449","type":"Road Construction","roads":"US-160E","chain_law":false,"closure":true,"pass_relevant":false,"observed":"2026-07-21T23:29:51.272Z","source":"planned"}},{"type":"Feature","geometry":{"type":"Point","coordinates":[-108.578443,37.348712]},"properties":{"id":"OpenTMS-Event34102332690","title":"US 160-140297","type":"Traffic Signal Installation","roads":"US-160E","chain_law":false,"closure":false,"pass_relevant":false,"observed":"2026-07-21T13:11:31.841Z","source":"planned"}},{"type":"Feature","geometry":{"type":"Point","coordinates":[-104.833617,38.86722]},"properties":{"id":"OpenTMS-Event34085043233","title":"I-25 Acceleration/De-Acceleration Lane from Garden of the Gods Road to Fillmore-140165","type":"Road Construction","roads":"I-25S","chain_law":false,"closure":true,"pass_relevant":false,"observed":"2026-07-20T15:31:07.625Z","source":"planned"}},{"type":"Feature","geometry":{"type":"Point","coordinates":[-105.234263,39.698286]},"properties":{"id":"OpenTMS-Event34109374134","title":"I-70 Resurfacing - Chief Hosa to Colfax-140559","type":"IT or Fiber Optics","roads":"I-70E","chain_law":false,"closure":true,"pass_relevant":true,"observed":"2026-07-21T22:18:25.561Z","source":"planned"}},{"type":"Feature","geometry":{"type":"Point","coordinates":[-105.172376,40.758847]},"properties":{"id":"OpenTMS-Event34102325868","title":"US 287 Intersection Improvements-137542","type":"Road Construction","roads":"US-287N","chain_law":false,"closure":true,"pass_relevant":false,"observed":"2026-07-21T13:10:51.630Z","source":"planned"}},{"type":"Feature","geometry":{"type":"Point","coordinates":[-106.044535,39.640308]},"properties":{"id":"OpenTMS-Event34083075286","title":"I-70 Straight Creek Culvert Repairs-138547","type":"Culvert Maintenance","roads":"I-70W","chain_law":false,"closure":false,"pass_relevant":true,"observed":"2026-07-20T13:02:42.992Z","source":"planned"}},{"type":"Feature","geometry":{"type":"Point","coordinates":[-105.304221,39.712512]},"properties":{"id":"OpenTMS-Event34109650624","title":"I-70 Resurfacing - Chief Hosa to Colfax-140566","type":"Other","roads":"I-70E","chain_law":false,"closure":false,"pass_relevant":true,"observed":"2026-07-21T22:18:33.568Z","source":"planned"}},{"type":"Feature","geometry":{"type":"Point","coordinates":[-106.251778,37.069148]},"properties":{"id":"OpenTMS-Event34071544407","title":"CO 17-140304","type":"Paving Operations","roads":"CO-17N","chain_law":false,"closure":false,"pass_relevant":false,"observed":"2026-07-19T22:28:27.553Z","source":"planned"}},{"type":"Feature","geometry":{"type":"Point","coordinates":[-104.699362,39.740098]},"properties":{"id":"OpenTMS-Event34058501144","title":"I-70 Aerotropolis Interchange-138105","type":"Bridge Construction","roads":"I-70E","chain_law":false,"closure":true,"pass_relevant":true,"observed":"2026-07-19T06:04:58.881Z","source":"planned"}},{"type":"Feature","geometry":{"type":"Point","coordinates":[-105.172376,40.758847]},"properties":{"id":"OpenTMS-Event34121548042","title":"US 287 Intersection Improvements-137543","type":"Road Construction","roads":"US-287N","chain_law":false,"closure":true,"pass_relevant":false,"observed":"2026-07-22T13:03:57.929Z","source":"planned"}},{"type":"Feature","geometry":{"type":"Point","coordinates":[-107.02208,37.267127]},"properties":{"id":"OpenTMS-Event34073738493","title":"US 160 Pagosa Springs Reconstruction-139090","type":"Road Construction","roads":"US-160W","chain_law":false,"closure":true,"pass_relevant":false,"observed":"2026-07-20T01:13:56.762Z","source":"planned"}},{"type":"Feature","geometry":{"type":"Point","coordinates":[-102.264928,40.585696]},"properties":{"id":"OpenTMS-Event33993131437","title":"US 6 and US 385 Bridge Replacements-139871","type":"Bridge Construction","roads":"US-6E","chain_law":false,"closure":false,"pass_relevant":false,"observed":"2026-07-21T00:47:05.728Z","source":"planned"}},{"type":"Feature","geometry":{"type":"Point","coordinates":[-105.431267,39.742494]},"properties":{"id":"OpenTMS-Event34013600492","title":"I-70 Floyd Hill Project - WO 07/19/26-140080","type":"Road Construction","roads":"US-40E","chain_law":false,"closure":false,"pass_relevant":true,"observed":"2026-07-16T21:15:21.315Z","source":"planned"}},{"type":"Feature","geometry":{"type":"Point","coordinates":[-104.833272,38.867223]},"properties":{"id":"OpenTMS-Event34085377050","title":"I-25 Acceleration/De-Acceleration Lane from Garden of the Gods Road to Fillmore-140376","type":"Road Construction","roads":"I-25N","chain_law":false,"closure":false,"pass_relevant":false,"observed":"2026-07-20T15:55:52.206Z","source":"planned"}},{"type":"Feature","geometry":{"type":"Point","coordinates":[-104.678607,39.740161]},"properties":{"id":"OpenTMS-Event34001330217","title":"I-70 Aerotropolis Interchange-138133","type":"Bridge Construction","roads":"I-70W","chain_law":false,"closure":true,"pass_relevant":true,"observed":"2026-07-16T06:03:43.793Z","source":"planned"}},{"type":"Feature","geometry":{"type":"Point","coordinates":[-104.987821,39.827467]},