{"type":"FeatureCollection","features":[{"type":"Feature","geometry":{"type":"Point","coordinates":[-104.823485,37.922013]},"properties":{"id":"OpenTMS-Incident34164442257","title":"Disabled Vehicle","type":"Disabled Vehicle","roads":"I-25N","chain_law":false,"closure":false,"pass_relevant":false,"observed":"2026-07-24T18:56:36.824Z","source":"incident"}},{"type":"Feature","geometry":{"type":"Point","coordinates":[-104.920903,37.9238]},"properties":{"id":"OpenTMS-Incident33669317063","title":"Fire Activity","type":"Fire Activity","roads":"CO-165N","chain_law":false,"closure":true,"pass_relevant":false,"observed":"2026-07-24T14:52:39.119Z","source":"incident"}},{"type":"Feature","geometry":{"type":"Point","coordinates":[-106.348932,39.221645]},"properties":{"id":"OpenTMS-Incident33816128010","title":"Fire Activity","type":"Fire Activity","roads":"CO-300E","chain_law":false,"closure":true,"pass_relevant":false,"observed":"2026-07-22T16:16:08.670Z","source":"incident"}},{"type":"Feature","geometry":{"type":"Point","coordinates":[-106.432081,39.589433]},"properties":{"id":"OpenTMS-Incident34009394865","title":"Other Activity","type":"Other Activity","roads":"US-24E","chain_law":false,"closure":false,"pass_relevant":false,"observed":"2026-07-22T01:39:56.316Z","source":"incident"}},{"type":"Feature","geometry":{"type":"Point","coordinates":[-104.979919,40.201543]},"properties":{"id":"OpenTMS-Incident34164238881","title":"Disabled Vehicle","type":"Disabled Vehicle","roads":"I-25N","chain_law":false,"closure":true,"pass_relevant":false,"observed":"2026-07-24T18:31:11.440Z","source":"incident"}},{"type":"Feature","geometry":{"type":"Point","coordinates":[-105.471467,39.745404]},"properties":{"id":"OpenTMS-Incident34161010525","title":"MEXL Open","type":"MEXL Open","roads":"I-70W","chain_law":false,"closure":false,"pass_relevant":false,"observed":"2026-07-24T14:00:38.436Z","source":"incident"}},{"type":"Feature","geometry":{"type":"Point","coordinates":[-105.656217,39.757948]},"properties":{"id":"OpenTMS-Incident34162618805","title":"MEXL Open","type":"MEXL Open","roads":"I-70E","chain_law":false,"closure":false,"pass_relevant":false,"observed":"2026-07-24T16:00:56.250Z","source":"incident"}},{"type":"Feature","geometry":{"type":"Point","coordinates":[-105.202048,39.702355]},"properties":{"id":"OpenTMS-Incident34164727020","title":"2 Vehicle Crash","type":"2 Vehicle Crash","roads":"I-70W","chain_law":false,"closure":true,"pass_relevant":false,"observed":"2026-07-24T18:47:25.555Z","source":"incident"}},{"type":"Feature","geometry":{"type":"Point","coordinates":[-104.667855,40.080543]},"properties":{"id":"OpenTMS-Incident33531957531","title":"Maintenance Operations","type":"Maintenance Operations","roads":"CO-52W","chain_law":false,"closure":false,"pass_relevant":false,"observed":"2026-06-22T15:14:55.892Z","source":"incident"}},{"type":"Feature","geometry":{"type":"Point","coordinates":[-105.053148,39.725814]},"properties":{"id":"OpenTMS-Incident34164889850","title":"Disabled Vehicle","type":"Disabled Vehicle","roads":"US-6W","chain_law":false,"closure":true,"pass_relevant":false,"observed":"2026-07-24T18:49:07.839Z","source":"incident"}},{"type":"Feature","geometry":{"type":"Point","coordinates":[-108.135095,38.046929]},"properties":{"id":"OpenTMS-Incident34121741568","title":"Maintenance Operations","type":"Maintenance Operations","roads":"CO-145N","chain_law":false,"closure":false,"pass_relevant":false,"observed":"2026-07-23T23:45:43.817Z","source":"incident"}},{"type":"Feature","geometry":{"type":"Point","coordinates":[-105.079354,38.027818]},"properties":{"id":"OpenTMS-Incident33672129454","title":"Fire Activity","type":"Fire Activity","roads":"CO-78E","chain_law":false,"closure":true,"pass_relevant":false,"observed":"2026-07-24T14:52:24.598Z","source":"incident"}},{"type":"Feature","geometry":{"type":"Point","coordinates":[-104.896628,39.269724]},"properties":{"id":"OpenTMS-Event34162293109","title":"I-25 Lane Closures at Exit 179 Crystal Valley Parkway-140948","type":"Bridge Construction","roads":"I-25N","chain_law":false,"closure":true,"pass_relevant":false,"observed":"2026-07-24T15:34:54.501Z","source":"planned"}},{"type":"Feature","geometry":{"type":"Point","coordinates":[-105.144584,39.584068]},"properties":{"id":"OpenTMS-Event34144928608","title":"C-470 Resurfacing-140762","type":"Road Construction","roads":"CO-470E","chain_law":false,"closure":false,"pass_relevant":false,"observed":"2026-07-23T18:15:53.453Z","source":"planned"}},{"type":"Feature","geometry":{"type":"Point","coordinates":[-107.937288,39.499968]},"properties":{"id":"OpenTMS-Event34146910280","title":"Paving Operations-140737","type":"Paving Operations","roads":"I-70E","chain_law":false,"closure":true,"pass_relevant":false,"observed":"2026-07-23T20:43:22.146Z","source":"planned"}},{"type":"Feature","geometry":{"type":"Point","coordinates":[-105.854351,39.701885]},"properties":{"id":"OpenTMS-Event34161736294","title":"R3 - I-70 Chain Station Technology & Communications Upgrades-140934","type":"Other","roads":"I-70W","chain_law":true,"closure":true,"pass_relevant":true,"observed":"2026-07-24T14:53:40.821Z","source":"planned"}},{"type":"Feature","geometry":{"type":"Point","coordinates":[-102.302246,40.579647]},"properties":{"id":"OpenTMS-Event34145471414","title":"US 6 and US 385 Bridge Replacement-140786","type":"Bridge Construction","roads":"US-385N","chain_law":false,"closure":false,"pass_relevant":false,"observed":"2026-07-23T18:56:17.024Z","source":"planned"}},{"type":"Feature","geometry":{"type":"Point","coordinates":[-105.367538,39.713407]},"properties":{"id":"OpenTMS-Event34161736032","title":"R3 - I-70 Chain Station Technology & Communications Upgrades-140930","type":"Other","roads":"I-70W","chain_law":true,"closure":true,"pass_relevant":true,"observed":"2026-07-24T14:53:39.157Z","source":"planned"}},{"type":"Feature","geometry":{"type":"Point","coordinates":[-105.061385,38.992778]},"properties":{"id":"OpenTMS-Event34105160486","title":"CO 67 Capital project-140441","type":"Paving Operations","roads":"CO-67S","chain_law":false,"closure":false,"pass_relevant":false,"observed":"2026-07-21T16:44:03.461Z","source":"planned"}},{"type":"Feature","geometry":{"type":"Point","coordinates":[-107.86669,37.233631]},"properties":{"id":"OpenTMS-Event34146768328","title":"Paving Operations-140595","type":"Paving Operations","roads":"US-160E","chain_law":false,"closure":true,"pass_relevant":false,"observed":"2026-07-23T20:33:09.018Z","source":"planned"}},{"type":"Feature","geometry":{"type":"Point","coordinates":[-105.293969,39.742238]},"properties":{"id":"OpenTMS-Event34144056940","title":"Work Element Highway US 6-140753","type":"Road Construction","roads":"US-6E","chain_law":false,"closure":true,"pass_relevant":false,"observed":"2026-07-23T17:10:20.478Z","source":"planned"}},{"type":"Feature","geometry":{"type":"Point","coordinates":[-106.304188,39.642831]},"properties":{"id":"OpenTMS-Event34087871110","title":"I-70 West Vail Pass — Lane Closures-140394","type":"Road Construction","roads":"I-70E","chain_law":false,"closure":true,"pass_relevant":true,"observed":"2026-07-20T19:04:11.538Z","source":"planned"}},{"type":"Feature","geometry":{"type":"Point","coordinates":[-105.16587,39.734865]},"properties":{"id":"OpenTMS-Event34132891059","title":"I-70 Resurfacing - Chief Hosa to Colfax-140584","type":"Other","roads":"I-70W","chain_law":false,"closure":true,"pass_relevant":true,"observed":"2026-07-23T03:14:16.536Z","source":"planned"}},{"type":"Feature","geometry":{"type":"Point","coordinates":[-104.992706,39.680982]},"properties":{"id":"OpenTMS-Event34115917242","title":"US 85 & West Jewell Ave-136706","type":"Bridge Construction","roads":"US-85S","chain_law":false,"closure":false,"pass_relevant":false,"observed":"2026-07-22T06:05:22.283Z","source":"planned"}},{"type":"Feature","geometry":{"type":"Point","coordinates":[-104.606849,39.361574]},"properties":{"id":"OpenTMS-Event34133166125","title":"25632 - CO 86 Resurfacing in Elizabeth-140718","type":"Paving Operations","roads":"CO-86E","chain_law":false,"closure":true,"pass_relevant":false,"observed":"2026-07-23T03:34:51.843Z","source":"planned"}},{"type":"Feature","geometry":{"type":"Point","coordinates":[-104.606849,39.361574]},"properties":{"id":"OpenTMS-Event34133166228","title":"25632 - CO 86 Resurfacing in Elizabeth-140723","type":"Paving Operations","roads":"CO-86W","chain_law":false,"closure":false,"pass_relevant":false,"observed":"2026-07-23T03:34:54.048Z","source":"planned"}},{"type":"Feature","geometry":{"type":"Point","coordinates":[-104.967074,39.780128]},"properties":{"id":"OpenTMS-Event34112644355","title":"FLS Sprinkler Testing-139719","type":"Tunnel Maintenance","roads":"I-70W","chain_law":false,"closure":true,"pass_relevant":false,"observed":"2026-07-22T02:01:10.229Z","source":"planned"}},{"type":"Feature","geometry":{"type":"Point","coordinates":[-104.833272,38.867223]},"properties":{"id":"OpenTMS-Event34127842144","title":"I-25 Acceleration/De-Aceleration Lanes from Garden of the Gods to Fillmore Street-140608","type":"Road Construction","roads":"I-25N","chain_law":false,"closure":true,"pass_relevant":false,"observed":"2026-07-24T16:09:43.625Z","source":"planned"}},{"type":"Feature","geometry":{"type":"Point","coordinates":[-104.827637,38.903604]},"properties":{"id":"OpenTMS-Event34127842216","title":"I-25 Acceleration/De-Aceleration Lanes from Garden of the Gods to Fillmore Street-140617","type":"Road Construction","roads":"I-25S","chain_law":false,"closure":true,"pass_relevant":false,"observed":"2026-07-24T16:09:46.200Z","source":"planned"}},{"type":"Feature","geometry":{"type":"Point","coordinates":[-105.081466,39.765071]},"properties":{"id":"OpenTMS-Event34083221746","title":"Wadsworth Improvement Project-140342","type":"Road Construction","roads":"CO-121N","chain_law":false,"closure":false,"pass_relevant":true,"observed":"2026-07-20T13:14:06.822Z","source":"planned"}},{"type":"Feature","geometry":{"type":"Point","coordinates":[-105.028843,39.573336]},"properties":{"id":"OpenTMS-Event34115910466","title":"Santa Fe Drive Mineral Ave Operational Improvements-135435","type":"Road Construction","roads":"US-85S","chain_law":false,"closure":true,"pass_relevant":false,"observed":"2026-07-23T03:19:38.097Z","source":"planned"}},{"type":"Feature","geometry":{"type":"Point","coordinates":[-104.678607,39.740161]},"properties":{"id":"OpenTMS-Event34039277824","title":"I-70 Aerotropolis Interchange-138135","type":"Bridge Construction","roads":"I-70W","chain_law":false,"closure":true,"pass_relevant":true,"observed":"2026-07-18T06:02:45.695Z","source":"planned"}},{"type":"Feature","geometry":{"type":"Point","coordinates":[-104.872022,39.508432]},"properties":{"id":"OpenTMS-Event34162563402","title":"PASE ENVIROMENTAL / PWQ / TASK ORDER # 52-140989","type":"Other","roads":"I-25S","chain_law":false,"closure":true,"pass_relevant":false,"observed":"2026-07-24T15:54:45.012Z","source":"planned"}},{"type":"Feature","geometry":{"type":"Point","coordinates":[-104.102469,39.673948]},"properties":{"id":"OpenTMS-Event34126557813","title":"I-70 Deer Trail Bridge Rehabs-140650","type":"Bridge Construction","roads":"I-70E","chain_law":false,"closure":true,"pass_relevant":true,"observed":"2026-07-22T19:19:31.262Z","source":"planned"}},{"type":"Feature","geometry":{"type":"Point","coordinates":[-105.946564,39.677027]},"properties":{"id":"OpenTMS-Event34055311573","title":"EJMT Tunnel Inspections-138474","type":"Tunnel Maintenance","roads":"I-70W","chain_law":false,"closure":true,"pass_relevant":true,"observed":"2026-07-19T02:05:07.067Z","source":"planned"}},{"type":"Feature","geometry":{"type":"Point","coordinates":[-106.111615,39.578561]},"properties":{"id":"OpenTMS-Event34039277757","title":"Frisco I-70 CO 9 Exit -137943","type":"Road Construction","roads":"I-70E","chain_law":false,"closure":true,"pass_relevant":true,"observed":"2026-07-18T06:02:42.615Z","source":"planned"}},{"type":"Feature","geometry":{"type":"Point","coordinates":[-104.827637,38.903604]},"properties":{"id":"OpenTMS-Event34127842265","title":"I-25 Acceleration/De-Aceleration Lanes from Garden of the Gods to Fillmore Street-140629","type":"Road Construction","roads":"I-25S","chain_law":false,"closure":true,"pass_relevant":false,"observed":"2026-07-24T16:09:52.924Z","source":"planned"}},{"type":"Feature","geometry":{"type":"Point","coordinates":[-108.069294,38.756289]},"properties":{"id":"OpenTMS-Event34140794047","title":"US 50 Delta Resurfacing-138528","type":"Paving Operations","roads":"US-50E","chain_law":false,"closure":false,"pass_relevant":false,"observed":"2026-07-23T13:05:11.451Z","source":"planned"}},{"type":"Feature","geometry":{"type":"Point","coordinates":[-108.572709,37.348814]},"properties":{"id":"OpenTMS-Event34083082100","title":"US 160-140284","type":"Traffic Signal Installation","roads":"US-160E","chain_law":false,"closure":true,"pass_relevant":false,"observed":"2026-07-20T13:03:30.572Z","source":"planned"}},{"type":"Feature","geometry":{"type":"Point","coordinates":[-105.266408,40.870451]},"properties":{"id":"OpenTMS-Event34121548057","title":"US 287 Intersection Improvements-138448","type":"Road Construction","roads":"US-287N","chain_law":false,"closure":true,"pass_relevant":true,"observed":"2026-07-22T19:29:53.525Z","source":"planned"}},{"type":"Feature","geometry":{"type":"Point","coordinates":[-104.975945,39.999658]},"properties":{"id":"OpenTMS-Event34090558273","title":"I-25 & CO 7 Interim Transit Improvements-140413","type":"Bridge Construction","roads":"CO-7N","chain_law":false,"closure":true,"pass_relevant":false,"observed":"2026-07-20T22:27:04.242Z","source":"planned"}},{"type":"Feature","geometry":{"type":"Point","coordinates":[-104.992706,39.680982]},"properties":{"id":"OpenTMS-Event34039277938","title":"US 85 & West Jewell Ave-136702","type":"Bridge Construction","roads":"US-85S","chain_law":false,"closure":false,"pass_relevant":false,"observed":"2026-07-18T06:02:55.926Z","source":"planned"}},{"type":"Feature","geometry":{"type":"Point","coordinates":[-106.304188,39.642831]},"properties":{"id":"OpenTMS-Event34087868227","title":"I-70 West Vail Pass — Lane Closures-140393","type":"Road Construction","roads":"I-70E","chain_law":false,"closure":true,"pass_relevant":true,"observed":"2026-07-20T19:04:08.720Z","source":"planned"}},{"type":"Feature","geometry":{"type":"Point","coordinates":[-105.451921,39.743262]},"properties":{"id":"OpenTMS-Event34146087715","title":"I-70 Floyd Hill Project - WO 07/26/26-140810","type":"Road Construction","roads":"I-70E","chain_law":false,"closure":true,"pass_relevant":true,"observed":"2026-07-23T19:52:10.322Z","source":"planned"}},{"type":"Feature","geometry":{"type":"Point","coordinates":[-105.266408,40.870451]},"properties":{"id":"OpenTMS-Event34083075511","title":"US 287 Intersection Improvements-138446","type":"Road Construction","roads":"US-287N","chain_law":false,"closure":true,"pass_relevant":true,"observed":"2026-07-22T19:29:49.772Z","source":"planned"}},{"type":"Feature","geometry":{"type":"Point","coordinates":[-108.069294,38.756289]},"properties":{"id":"OpenTMS-Event34006971330","title":"US 50 Delta Resurfacing-138523","type":"Paving Operations","roads":"US-50E","chain_law":false,"closure":false,"pass_relevant":false,"observed":"2026-07-16T13:01:00.212Z","source":"planned"}},{"type":"Feature","geometry":{"type":"Point","coordinates":[-106.248173,39.581298]},"properties":{"id":"OpenTMS-Event34103879396","title":"I-70 West Vail Pass – Traffic Holds-140400","type":"Rock Work","roads":"I-70W","chain_law":false,"closure":false,"pass_relevant":true,"observed":"2026-07-21T15:07:47.393Z","source":"planned"}},{"type":"Feature","geometry":{"type":"Point","coordinates":[-107.928865,39.500496]},"properties":{"id":"OpenTMS-Event34146910158","title":"Paving Operations-140730","type":"Paving Operations","roads":"I-70E","chain_law":false,"closure":true,"pass_relevant":true,"observed":"2026-07-23T20:43:20.254Z","source":"planned"}},{"type":"Feature","geometry":{"type":"Point","coordinates":[-104.952579,37.5535]},"properties":{"id":"OpenTMS-Event34110612874","title":"Road Construction-140448","type":"Road Construction","roads":"US-160E","chain_law":false,"closure":true,"pass_relevant":false,"observed":"2026-07-21T23:29:50.531Z","source":"planned"}},{"type":"Feature","geometry":{"type":"Point","coordinates":[-105.612759,38.26572]},"properties":{"id":"OpenTMS-Event34162292899","title":"CO 69 Resurfacing Hillside to Texas Creek-140959","type":"Paving Operations","roads":"CO-69S","chain_law":false,"closure":false,"pass_relevant":false,"observed":"2026-07-24T15:34:49.203Z","source":"planned"}},{"type":"Feature","geometry":{"type":"Point","coordinates":[-107.859817,39.515787]},"properties":{"id":"OpenTMS-Event34012033445","title":"Paving Operations-139809","type":"Paving Operations","roads":"I-70E","chain_law":false,"closure":true,"pass_relevant":false,"observed":"2026-07-16T19:17:00.360Z","source":"planned"}},{"type":"Feature","geometry":{"type":"Point","coordinates":[-107.303366,39.561917]},"properties":{"id":"OpenTMS-Event34140791992","title":"I-70 Glenwood Canyon bridge joints-138577","type":"Bridge Construction","roads":"I-70E","chain_law":false,"closure":false,"pass_relevant":true,"observed":"2026-07-23T13:05:10.256Z","source":"planned"}},{"type":"Feature","geometry":{"type":"Point","coordinates":[-104.699362,39.740098]},"properties":{"id":"OpenTMS-Event34019939917","title":"I-70 Aerotropolis Interchange-138103","type":"Bridge Construction","roads":"I-70E","chain_law":false,"closure":true,"pass_relevant":true,"observed":"2026-07-17T06:01:08.138Z","source":"planned"}},{"type":"Feature","geometry":{"type":"Point","coordinates":[-107.540076,39.571428]},"properties":{"id":"OpenTMS-Event34140798094","title":"US 6 Elk Creek Bridge Replacement-139608","type":"Bridge Construction","roads":"US-6W","chain_law":false,"closure":false,"pass_relevant":false,"observed":"2026-07-23T13:05:17.033Z","source":"planned"}},{"type":"Feature","geometry":{"type":"Point","coordinates":[-104.939575,38.371691]},"properties":{"id":"OpenTMS-Event34146768663","title":"Paving Operations-140605","type":"Paving Operations","roads":"US-50E","chain_law":false,"closure":true,"pass_relevant":false,"observed":"2026-07-23T20:33:10.105Z","source":"planned"}},{"type":"Feature","geometry":{"type":"Point","coordinates":[-105.409894,39.721402]},"properties":{"id":"OpenTMS-Event34146087498","title":"I-70 Floyd Hill Project - WO 07/26/26-140812","type":"Road Construction","roads":"I-70W","chain_law":false,"closure":true,"pass_relevant":true,"observed":"2026-07-23T19:52:08.427Z","source":"planned"}},{"type":"Feature","geometry":{"type":"Point","coordinates":[-105.293969,39.742238]},"properties":{"id":"OpenTMS-Event34005816241","title":"Work Element Highway US 6-139881","type":"Road Construction","roads":"US-6E","chain_law":false,"closure":true,"pass_relevant":false,"observed":"2026-07-16T11:35:36.382Z","source":"planned"}},{"type":"Feature","geometry":{"type":"Point","coordinates":[-106.311793,39.361609]},"properties":{"id":"OpenTMS-Event34146910502","title":"Wall Maintenance-140853","type":"Wall Maintenance","roads":"US-24E","chain_law":false,"closure":false,"pass_relevant":false,"observed":"2026-07-23T20:43:26.491Z","source":"planned"}},{"type":"Feature","geometry":{"type":"Point","coordinates":[-104.613619,38.409941]},"properties":{"id":"OpenTMS-Event34145062889","title":"I-25 Cable Rail Installation-140776","type":"Guardrail","roads":"I-25N","chain_law":false,"closure":true,"pass_relevant":false,"observed":"2026-07-23T18:26:02.707Z","source":"planned"}},{"type":"Feature","geometry":{"type":"Point","coordinates":[-104.872022,39.508432]},"properties":{"id":"OpenTMS-Event34162563383","title":"PASE ENVIROMENTAL / PWQ / TASK ORDER # 52-140988","type":"Other","roads":"I-25S","chain_law":false,"closure":true,"pass_relevant":false,"observed":"2026-07-24T15:54:44.532Z","source":"planned"}},{"type":"Feature","geometry":{"type":"Point","coordinates":[-105.460524,39.74629]},"properties":{"id":"OpenTMS-Event34146087884","title":"I-70 Floyd Hill Project - WO 07/26/26-140793","type":"Road Construction","roads":"I-70E","chain_law":false,"closure":false,"pass_relevant":true,"observed":"2026-07-23T19:52:12.989Z","source":"planned"}},{"type":"Feature","geometry":{"type":"Point","coordinates":[-103.800352,37.797232]},"properties":{"id":"OpenTMS-Event34162836440","title":"US 350 Resurfacing in Otero County-141008","type":"Paving Operations","roads":"US-350E","chain_law":false,"closure":false,"pass_relevant":false,"observed":"2026-07-24T16:14:46.530Z","source":"planned"}},{"type":"Feature","geometry":{"type":"Point","coordinates":[-102.284114,40.585691]},"properties":{"id":"OpenTMS-Event33993131404","title":"US 6 and US 385 Bridge Replacements-139870","type":"Bridge Construction","roads":"US-6E","chain_law":false,"closure":false,"pass_relevant":false,"observed":"2026-07-21T00:47:04.713Z","source":"planned"}},{"type":"Feature","geometry":{"type":"Point","coordinates":[-105.061385,38.992778]},"properties":{"id":"OpenTMS-Event34105160505","title":"CO 67 Capital project-140442","type":"Paving Operations","roads":"CO-67S","chain_law":false,"closure":false,"pass_relevant":false,"observed":"2026-07-21T16:44:03.872Z","source":"planned"}},{"type":"Feature","geometry":{"type":"Point","coordinates":[-104.975867,39.999804]},"properties":{"id":"OpenTMS-Event34103879655","title":"I-25 & CO 7 Interim Transit Improvements-140420","type":"Bridge Construction","roads":"CO-7S","chain_law":false,"closure":true,"pass_relevant":false,"observed":"2026-07-21T15:08:03.747Z","source":"planned"}},{"type":"Feature","geometry":{"type":"Point","coordinates":[-106.964908,39.653831]},"properties":{"id":"OpenTMS-Event34146768205","title":"Road Construction-140456","type":"Road Construction","roads":"I-70E","chain_law":false,"closure":true,"pass_relevant":false,"observed":"2026-07-23T20:33:07.219Z","source":"planned"}},{"type":"Feature","geometry":{"type":"Point","coordinates":[-105.007442,39.740279]},"properties":{"id":"OpenTMS-Event34058500916","title":"Colfax Downtown Rail Reconstruction Part 2-136081","type":"Road Construction","roads":"US-40W","chain_law":false,"closure":true,"pass_relevant":false,"observed":"2026-07-19T06:04:48.363Z","source":"planned"}},{"type":"Feature","geometry":{"type":"Point","coordinates":[-105.451921,39.743262]},"properties":{"id":"OpenTMS-Event34146087665","title":"I-70 Floyd Hill Project - WO 07/26/26-140808","type":"Road Construction","roads":"I-70E","chain_law":false,"closure":true,"pass_relevant":true,"observed":"2026-07-23T19:52:09.126Z","source":"planned"}},{"type":"Feature","geometry":{"type":"Point","coordinates":[-105.612759,38.26572]},"properties":{"id":"OpenTMS-Event34012309112","title":"CO 69 Resurfacing Hillside to Texas Creek-139961","type":"Paving Operations","roads":"CO-69N","chain_law":false,"closure":false,"pass_relevant":false,"observed":"2026-07-24T15:34:49.714Z","source":"planned"}},{"type":"Feature","geometry":{"type":"Point","coordinates":[-105.23488,40.050817]},"properties":{"id":"OpenTMS-Event34145531989","title":"CO 119 Safety, Mobility & Bikeway Construction - WO 07/26/26-140798","type":"Road Construction","roads":"CO-119S","chain_law":false,"closure":false,"pass_relevant":false,"observed":"2026-07-23T19:01:09.139Z","source":"planned"}},{"type":"Feature","geometry":{"type":"Point","coordinates":[-105.172376,40.758847]},"properties":{"id":"OpenTMS-Event34140804986","title":"US 287 Intersection Improvements-137544","type":"Road Construction","roads":"US-287N","chain_law":false,"closure":true,"pass_relevant":false,"observed":"2026-07-23T13:05:57.426Z","source":"planned"}},{"type":"Feature","geometry":{"type":"Point","coordinates":[-108.567833,39.064397]},"properties":{"id":"OpenTMS-Event33023406191","title":"I-70B East of Third Street Improvements-134425","type":"Road Construction","roads":"CO-70E","chain_law":false,"closure":true,"pass_relevant":false,"observed":"2026-07-24T15:04:04.815Z","source":"planned"}},{"type":"Feature","geometry":{"type":"Point","coordinates":[-104.757966,39.477557]},"properties":{"id":"OpenTMS-Event34103865564","title":"Parker Sidewalks-139666","type":"Other","roads":"CO-83N","chain_law":false,"closure":true,"pass_relevant":false,"observed":"2026-07-21T15:06:51.496Z","source":"planned"}},{"type":"Feature","geometry":{"type":"Point","coordinates":[-105.23404,40.050204]},"properties":{"id":"OpenTMS-Event34145531891","title":"CO 119 Safety, Mobility & Bikeway Construction - WO 07/26/26-140788","type":"Road Construction","roads":"CO-119N","chain_law":false,"closure":false,"pass_relevant":false,"observed":"2026-07-23T19:01:07.126Z","source":"planned"}},{"type":"Feature","geometry":{"type":"Point","coordinates":[-105.431267,39.742494]},"properties":{"id":"OpenTMS-Event34146086664","title":"I-70 Floyd Hill Project - WO 07/26/26-140803","type":"Road Construction","roads":"US-40E","chain_law":false,"closure":false,"pass_relevant":true,"observed":"2026-07-23T19:52:07.992Z","source":"planned"}},{"type":"Feature","geometry":{"type":"Point","coordinates":[-104.606849,39.361574]},"properties":{"id":"OpenTMS-Event34133166245","title":"25632 - CO 86 Resurfacing in Elizabeth-140724","type":"Paving Operations","roads":"CO-86W","chain_law":false,"closure":false,"pass_relevant":false,"observed":"2026-07-23T03:34:54.519Z","source":"planned"}},{"type":"Feature","geometry":{"type":"Point","coordinates":[-102.302246,40.579647]},"properties":{"id":"OpenTMS-Event34145471397","title":"US 6 and US 385 Bridge Replacement-140782","type":"Bridge Construction","roads":"US-385N","chain_law":false,"closure":false,"pass_relevant":false,"observed":"2026-07-23T18:56:16.392Z","source":"planned"}},{"type":"Feature","geometry":{"type":"Point","coordinates":[-108.572709,37.348814]},"properties":{"id":"OpenTMS-Event34071477776","title":"US 160-140283","type":"Traffic Signal Installation","roads":"US-160E","chain_law":false,"closure":true,"pass_relevant":false,"observed":"2026-07-19T22:23:28.601Z","source":"planned"}},{"type":"Feature","geometry":{"type":"Point","coordinates":[-104.992239,39.684248]},"properties":{"id":"OpenTMS-Event34058501261","title":"US 85 & West Jewell Ave-129518","type":"Bridge Construction","roads":"US-85S","chain_law":false,"closure":true,"pass_relevant":false,"observed":"2026-07-19T06:05:07.075Z","source":"planned"}},{"type":"Feature","geometry":{"type":"Point","coordinates":[-105.367584,39.713234]},"properties":{"id":"OpenTMS-Event34161735118","title":"R3 - I-70 Chain Station Technology & Communications Upgrades-140925","type":"Other","roads":"I-70E","chain_law":true,"closure":true,"pass_relevant":true,"observed":"2026-07-24T14:53:36.762Z","source":"planned"}},{"type":"Feature","geometry":{"type":"Point","coordinates":[-107.892942,39.504726]},"properties":{"id":"OpenTMS-Event34146910300","title":"Paving Operations-140732","type":"Paving Operations","roads":"I-70E","chain_law":false,"closure":true,"pass_relevant":true,"observed":"2026-07-23T20:43:22.496Z","source":"planned"}},{"type":"Feature","geometry":{"type":"Point","coordinates":[-107.540076,39.571428]},"properties":{"id":"OpenTMS-Event34083075331","title":"US 6 Elk Creek Bridge Replacement-139605","type":"Bridge Construction","roads":"US-6W","chain_law":false,"closure":false,"pass_relevant":false,"observed":"2026-07-20T13:02:47.619Z","source":"planned"}},{"type":"Feature","geometry":{"type":"Point","coordinates":[-105.819568,39.693274]},"properties":{"id":"OpenTMS-Event34161736432","title":"R3 - I-70 Chain Station Technology & Communications Upgrades-140941","type":"Other","roads":"I-70W","chain_law":true,"closure":true,"pass_relevant":true,"observed":"2026-07-24T14:53:43.794Z","source":"planned"}},{"type":"Feature","geometry":{"type":"Point","coordinates":[-105.266408,40.870451]},"properties":{"id":"OpenTMS-Event34025832073","title":"US 287 Intersection Improvements-138443","type":"Road Construction","roads":"US-287N","chain_law":false,"closure":true,"pass_relevant":true,"observed":"2026-07-22T19:29:40.810Z","source":"planned"}},{"type":"Feature","geometry":{"type":"Point","coordinates":[-105.234263,39.698286]},"properties":{"id":"OpenTMS-Event34109374164","title":"I-70 Resurfacing - Chief Hosa to Colfax-140555","type":"IT or Fiber Optics","roads":"I-70E","chain_law":false,"closure":true,"pass_relevant":true,"observed":"2026-07-21T22:18:27.251Z","source":"planned"}},{"type":"Feature","geometry":{"type":"Point","coordinates":[-108.069294,38.756289]},"properties":{"id":"OpenTMS-Event34064069370","title":"US 50 Delta Resurfacing-138524","type":"Paving Operations","roads":"US-50E","chain_law":false,"closure":false,"pass_relevant":false,"observed":"2026-07-19T13:04:49.270Z","source":"planned"}},{"type":"Feature","geometry":{"type":"Point","coordinates":[-107.911257,39.500229]},"properties":{"id":"OpenTMS-Event34012033428","title":"Paving Operations-139816","type":"Paving Operations","roads":"I-70E","chain_law":false,"closure":true,"pass_relevant":true,"observed":"2026-07-16T19:16:59.759Z","source":"planned"}},{"type":"Feature","geometry":{"type":"Point","coordinates":[-104.833272,38.867223]},"properties":{"id":"OpenTMS-Event34127842318","title":"I-25 Acceleration/De-Aceleration Lanes from Garden of the Gods to Fillmore Street-140610","type":"Road Construction","roads":"I-25N","chain_law":false,"closure":true,"pass_relevant":false,"observed":"2026-07-24T16:09:59.111Z","source":"planned"}},{"type":"Feature","geometry":{"type":"Point","coordinates":[-105.696342,39.716704]},"properties":{"id":"OpenTMS-Event34013519622","title":"R2 - I-70 Chain Station Technology & Communications Upgrades-140049","type":"Other","roads":"I-70E","chain_law":true,"closure":true,"pass_relevant":true,"observed":"2026-07-16T21:09:28.952Z","source":"planned"}},{"type":"Feature","geometry":{"type":"Point","coordinates":[-104.606849,39.361574]},"properties":{"id":"OpenTMS-Event34133166211","title":"25632 - CO 86 Resurfacing in Elizabeth-140722","type":"Paving Operations","roads":"CO-86W","chain_law":false,"closure":false,"pass_relevant":false,"observed":"2026-07-23T03:34:53.599Z","source":"planned"}},{"type":"Feature","geometry":{"type":"Point","coordinates":[-107.540076,39.571428]},"properties":{"id":"OpenTMS-Event34006978255","title":"US 6 Elk Creek Bridge Replacement-139603","type":"Bridge Construction","roads":"US-6W","chain_law":false,"closure":false,"pass_relevant":false,"observed":"2026-07-16T13:01:30.335Z","source":"planned"}},{"type":"Feature","geometry":{"type":"Point","coordinates":[-105.819568,39.693274]},"properties":{"id":"OpenTMS-Event34161736483","title":"R3 - I-70 Chain Station Technology & Communications Upgrades-140944","type":"Other","roads":"I-70W","chain_law":true,"closure":true,"pass_relevant":true,"observed":"2026-07-24T14:53:45.085Z","source":"planned"}},{"type":"Feature","geometry":{"type":"Point","coordinates":[-105.007442,39.740279]},"properties":{"id":"OpenTMS-Event34077590748","title":"Colfax Downtown Rail Reconstruction Part 2-136082","type":"Road Construction","roads":"US-40W","chain_law":false,"closure":true,"pass_relevant":false,"observed":"2026-07-20T06:08:21.195Z","source":"planned"}},{"type":"Feature","geometry":{"type":"Point","coordinates":[-105.460455,39.746457]},"properties":{"id":"OpenTMS-Event34146087820","title":"I-70 Floyd Hill Project - WO 07/26/26-140822","type":"Road Construction","roads":"I-70W","chain_law":false,"closure":false,"pass_relevant":true,"observed":"2026-07-23T19:52:11.787Z","source":"planned"}},{"type":"Feature","geometry":{"type":"Point","coordinates":[-107.661593,38.002397]},"properties":{"id":"OpenTMS-Event34162292544","title":"US 550 Red Mountain Wall & Tunnel Repairs-140968","type":"Tunnel Maintenance","roads":"US-550S","chain_law":false,"closure":false,"pass_relevant":true,"observed":"2026-07-24T15:34:39.741Z","source":"planned"}},{"type":"Feature","geometry":{"type":"Point","coordinates":[-106.305468,39.643381]},"properties":{"id":"OpenTMS-Event34024067410","title":"I-70 West Vail Pass — Lane Closures-139913","type":"Road Construction","roads":"I-70E","chain_law":false,"closure":true,"pass_relevant":true,"observed":"2026-07-17T11:06:55.148Z","source":"planned"}},{"type":"Feature","geometry":{"type":"Point","coordinates":[-105.23404,40.050204]},"properties":{"id":"OpenTMS-Event34031453731","title":"CO 119 Safety, Mobility & Bikeway Construction - WO 07/19/26-140192","type":"Road Construction","roads":"CO-119N","chain_law":false,"closure":true,"pass_relevant":false,"observed":"2026-07-17T20:18:18.344Z","source":"planned"}},{"type":"Feature","geometry":{"type":"Point","coordinates":[-108.572709,37.348814]},"properties":{"id":"OpenTMS-Event34071477725","title":"US 160-140280","type":"Traffic Signal Installation","roads":"US-160E","chain_law":false,"closure":true,"pass_relevant":false,"observed":"2026-07-19T22:23:26.719Z","source":"planned"}},{"type":"Feature","geometry":{"type":"Point","coordinates":[-104.992239,39.684248]},"properties":{"id":"OpenTMS-Event34096647539","title":"US 85 & West Jewell Ave-129520","type":"Bridge Construction","roads":"US-85S","chain_law":false,"closure":true,"pass_relevant":false,"observed":"2026-07-21T06:05:26.746Z","source":"planned"}},{"type":"Feature","geometry":{"type":"Point","coordinates":[-105.170622,40.744531]},"properties":{"id":"OpenTMS-Event34006571250","title":"US 287 Intersection Improvements-139891","type":"Road Construction","roads":"US-287N","chain_law":false,"closure":true,"pass_relevant":false,"observed":"2026-07-22T19:29:55.449Z","source":"planned"}},{"type":"Feature","geometry":{"type":"Point","coordinates":[-104.952579,37.5535]},"properties":{"id":"OpenTMS-Event34139991882","title":"Road Construction-140451","type":"Road Construction","roads":"US-160E","chain_law":false,"closure":true,"pass_relevant":false,"observed":"2026-07-23T12:05:09.446Z","source":"planned"}},{"type":"Feature","geometry":{"type":"Point","coordinates":[-105.87528,39.995514]},"properties":{"id":"OpenTMS-Event34146910542","title":"Paving Operations-140864","type":"Paving Operations","roads":"US-40E","chain_law":false,"closure":false,"pass_relevant":false,"observed":"2026-07-23T20:43:27.469Z","source":"planned"}},{"type":"Feature","geometry":{"type":"Point","coordinates":[-106.389183,39.520146]},"properties":{"id":"OpenTMS-Event34146910398","title":"Wall Maintenance-140851","type":"Wall Maintenance","roads":"US-24E","chain_law":false,"closure":false,"pass_relevant":false,"observed":"2026-07-23T20:43:24.506Z","source":"planned"}},{"type":"Feature","geometry":{"type":"Point","coordinates":[-106.044535,39.640308]},"properties":{"id":"OpenTMS-Event34102319321","title":"I-70 Straight Creek Culvert Repairs-138548","type":"Culvert Maintenance","roads":"I-70W","chain_law":false,"closure":false,"pass_relevant":true,"observed":"2026-07-21T13:10:20.995Z","source":"planned"}},{"type":"Feature","geometry":{"type":"Point","coordinates":[-105.06145,38.992946]},"properties":{"id":"OpenTMS-Event34105160543","title":"CO 67 Capital project-140436","type":"Paving Operations","roads":"CO-67N","chain_law":false,"closure":false,"pass_relevant":false,"observed":"2026-07-21T16:44:04.694Z","source":"planned"}},{"type":"Feature","geometry":{"type":"Point","coordinates":[-105.426586,39.731314]},"properties":{"id":"OpenTMS-Event34146155788","title":"I-70 Floyd Hill Project - WO 07/26/26-140840","type":"Road Construction","roads":"I-70W","chain_law":false,"closure":true,"pass_relevant":true,"observed":"2026-07-23T19:52:23.200Z","source":"planned"}},{"type":"Feature","geometry":{"type":"Point","coordinates":[-105.081479,39.761964]},"properties":{"id":"OpenTMS-Event34142490862","title":"Wadsworth Path construction – Wadsworth between 32nd and 35th-140738","type":"Other","roads":"CO-121S","chain_law":false,"closure":true,"pass_relevant":false,"observed":"2026-07-23T15:12:35.556Z","source":"planned"}},{"type":"Feature","geometry":{"type":"Point","coordinates":[-104.827637,38.903604]},"properties":{"id":"OpenTMS-Event34085049819","title":"I-25 Acceleration/De-Acceleration Lane from Garden of the Gods Road to Fillmore-140206","type":"Road Construction","roads":"I-25S","chain_law":false,"closure":true,"pass_relevant":false,"observed":"2026-07-20T15:31:14.466Z","source":"planned"}},{"type":"Feature","geometry":{"type":"Point","coordinates":[-104.945775,39.562633]},"properties":{"id":"OpenTMS-Event34162563436","title":"CTIO Mobile Lane Closure-140983","type":"Other","roads":"CO-470W","chain_law":false,"closure":true,"pass_relevant":false,"observed":"2026-07-24T15:54:45.896Z","source":"planned"}},{"type":"Feature","geometry":{"type":"Point","coordinates":[-104.988208,40.00031]},"properties":{"id":"OpenTMS-Event34103879493","title":"I-25 & CO 7 Interim Transit Improvements-140405","type":"Bridge Construction","roads":"CO-7N","chain_law":false,"closure":false,"pass_relevant":false,"observed":"2026-07-21T15:07:50.920Z","source":"planned"}},{"type":"Feature","geometry":{"type":"Point","coordinates":[-104.699362,39.740098]},"properties":{"id":"OpenTMS-Event34039277871","title":"I-70 Aerotropolis Interchange-138104","type":"Bridge Construction","roads":"I-70E","chain_law":false,"closure":true,"pass_relevant":true,"observed":"2026-07-18T06:02:47.524Z","source":"planned"}},{"type":"Feature","geometry":{"type":"Point","coordinates":[-105.017873,40.160543]},"properties":{"id":"OpenTMS-Event31065348918","title":"CO 119 St. Vrain Greenway – Phase 13 – Eastern Extension-127004","type":"Road Construction","roads":"CO-119N","chain_law":false,"closure":true,"pass_relevant":false,"observed":"2026-04-01T14:15:17.753Z","source":"planned"}},{"type":"Feature","geometry":{"type":"Point","coordinates":[-105.443362,39.74384]},"properties":{"id":"OpenTMS-Event34146088074","title":"I-70 Floyd Hill Project - WO 07/26/26-140817","type":"Road Construction","roads":"I-70W","chain_law":false,"closure":false,"pass_relevant":true,"observed":"2026-07-23T19:52:21.742Z","source":"planned"}},{"type":"Feature","geometry":{"type":"Point","coordinates":[-105.367584,39.713234]},"properties":{"id":"OpenTMS-Event34161731722","title":"R3 - I-70 Chain Station Technology & Communications Upgrades-140922","type":"Other","roads":"I-70E","chain_law":true,"closure":true,"pass_relevant":true,"observed":"2026-07-24T14:53:35.472Z","source":"planned"}},{"type":"Feature","geometry":{"type":"Point","coordinates":[-105.09939,40.203276]},"properties":{"id":"OpenTMS-Event34072078933","title":"US 36/CO 66-140321","type":"IT or Fiber Optics","roads":"CO-66W","chain_law":false,"closure":true,"pass_relevant":false,"observed":"2026-07-19T23:08:57.685Z","source":"planned"}},{"type":"Feature","geometry":{"type":"Point","coordinates":[-105.293969,39.742238]},"properties":{"id":"OpenTMS-Event34144056867","title":"Work Element Highway US 6-140748","type":"Road Construction","roads":"US-6E","chain_law":false,"closure":false,"pass_relevant":false,"observed":"2026-07-23T17:10:18.203Z","source":"planned"}},{"type":"Feature","geometry":{"type":"Point","coordinates":[-104.950534,39.780009]},"properties":{"id":"OpenTMS-Event34074422460","title":"FLS Sprinkler Testing-139711","type":"Tunnel Maintenance","roads":"I-70E","chain_law":false,"closure":true,"pass_relevant":false,"observed":"2026-07-20T02:05:12.055Z","source":"planned"}},{"type":"Feature","geometry":{"type":"Point","coordinates":[-105.170567,40.745568]},"properties":{"id":"OpenTMS-Event34126691036","title":"US 287 Intersection Improvements-140662","type":"Road Construction","roads":"US-287N","chain_law":false,"closure":true,"pass_relevant":false,"observed":"2026-07-22T19:29:31.885Z","source":"planned"}},{"type":"Feature","geometry":{"type":"Point","coordinates":[-104.872022,39.508432]},"properties":{"id":"OpenTMS-Event34006978150","title":"PASE ENVIROMENTAL / PWQ / TASK ORDER # 52-136596","type":"Other","roads":"I-25S","chain_law":false,"closure":true,"pass_relevant":false,"observed":"2026-07-24T15:54:45.512Z","source":"planned"}},{"type":"Feature","geometry":{"type":"Point","coordinates":[-105.443362,39.74384]},"properties":{"id":"OpenTMS-Event34146088094","title":"I-70 Floyd Hill Project - WO 07/26/26-140819","type":"Road Construction","roads":"I-70W","chain_law":false,"closure":false,"pass_relevant":true,"observed":"2026-07-23T19:52:22.180Z","source":"planned"}},{"type":"Feature","geometry":{"type":"Point","coordinates":[-104.848192,39.595134]},"properties":{"id":"OpenTMS-Event34143837056","title":"Arapahoe Road Lone Tree Creek Trail Underpass-140745","type":"Other","roads":"CO-88W","chain_law":false,"closure":true,"pass_relevant":false,"observed":"2026-07-24T16:44:54.334Z","source":"planned"}},{"type":"Feature","geometry":{"type":"Point","coordinates":[-105.88237,39.688787]},"properties":{"id":"OpenTMS-Event34161736328","title":"R3 - I-70 Chain Station Technology & Communications Upgrades-140936","type":"Other","roads":"I-70W","chain_law":true,"closure":true,"pass_relevant":true,"observed":"2026-07-24T14:53:41.661Z","source":"planned"}},{"type":"Feature","geometry":{"type":"Point","coordinates":[-105.819568,39.693274]},"properties":{"id":"OpenTMS-Event34161736466","title":"R3 - I-70 Chain Station Technology & Communications Upgrades-140943","type":"Other","roads":"I-70W","chain_law":true,"closure":true,"pass_relevant":true,"observed":"2026-07-24T14:53:44.667Z","source":"planned"}},{"type":"Feature","geometry":{"type":"Point","coordinates":[-105.266408,40.870451]},"properties":{"id":"OpenTMS-Event34006991637","title":"US 287 Intersection Improvements-138442","type":"Road Construction","roads":"US-287N","chain_law":false,"closure":true,"pass_relevant":true,"observed":"2026-07-22T19:29:38.879Z","source":"planned"}},{"type":"Feature","geometry":{"type":"Point","coordinates":[-105.367538,39.713407]},"properties":{"id":"OpenTMS-Event34161735935","title":"R3 - I-70 Chain Station Technology & Communications Upgrades-140927","type":"Other","roads":"I-70W","chain_law":true,"closure":true,"pass_relevant":true,"observed":"2026-07-24T14:53:37.901Z","source":"planned"}},{"type":"Feature","geometry":{"type":"Point","coordinates":[-104.952579,37.5535]},"properties":{"id":"OpenTMS-Event34012033317","title":"Road Construction-139804","type":"Road Construction","roads":"US-160E","chain_law":false,"closure":true,"pass_relevant":false,"observed":"2026-07-21T23:29:47.957Z","source":"planned"}},{"type":"Feature","geometry":{"type":"Point","coordinates":[-105.007442,39.740279]},"properties":{"id":"OpenTMS-Event34154506003","title":"Colfax Downtown Rail Reconstruction Part 2-136086","type":"Road Construction","roads":"US-40W","chain_law":false,"closure":true,"pass_relevant":false,"observed":"2026-07-24T06:02:38.690Z","source":"planned"}},{"type":"Feature","geometry":{"type":"Point","coordinates":[-104.613619,38.409941]},"properties":{"id":"OpenTMS-Event34145062824","title":"I-25 Cable Rail Installation-140774","type":"Guardrail","roads":"I-25N","chain_law":false,"closure":true,"pass_relevant":false,"observed":"2026-07-23T18:26:01.333Z","source":"planned"}},{"type":"Feature","geometry":{"type":"Point","coordinates":[-105.266408,40.870451]},"properties":{"id":"OpenTMS-Event34044884180","title":"US 287 Intersection Improvements-138444","type":"Road Construction","roads":"US-287N","chain_law":false,"closure":true,"pass_relevant":true,"observed":"2026-07-22T19:29:42.593Z","source":"planned"}},{"type":"Feature","geometry":{"type":"Point","coordinates":[-104.988208,40.00031]},"properties":{"id":"OpenTMS-Event34090411552","title":"I-25 & CO 7 Interim Transit Improvements-140403","type":"Bridge Construction","roads":"CO-7N","chain_law":false,"closure":false,"pass_relevant":false,"observed":"2026-07-20T22:16:07.576Z","source":"planned"}},{"type":"Feature","geometry":{"type":"Point","coordinates":[-105.23488,40.050817]},"properties":{"id":"OpenTMS-Event34031453865","title":"CO 119 Safety, Mobility & Bikeway Construction - WO 07/19/26-140197","type":"Road Construction","roads":"CO-119S","chain_law":false,"closure":true,"pass_relevant":false,"observed":"2026-07-17T20:18:21.488Z","source":"planned"}},{"type":"Feature","geometry":{"type":"Point","coordinates":[-105.23488,40.050817]},"properties":{"id":"OpenTMS-Event34145532177","title":"CO 119 Safety, Mobility & Bikeway Construction - WO 07/26/26-140799","type":"Road Construction","roads":"CO-119S","chain_law":false,"closure":false,"pass_relevant":false,"observed":"2026-07-23T19:01:09.779Z","source":"planned"}},{"type":"Feature","geometry":{"type":"Point","coordinates":[-105.30759,39.648878]},"properties":{"id":"OpenTMS-Event34162428447","title":"CO 74 Resurfacing -140980","type":"Paving Operations","roads":"CO-74E","chain_law":false,"closure":false,"pass_relevant":false,"observed":"2026-07-24T15:44:52.600Z","source":"planned"}},{"type":"Feature","geometry":{"type":"Point","coordinates":[-108.578443,37.348712]},"properties":{"id":"OpenTMS-Event34083082142","title":"US 160-140296","type":"Traffic Signal Installation","roads":"US-160E","chain_law":false,"closure":false,"pass_relevant":false,"observed":"2026-07-20T13:03:31.761Z","source":"planned"}},{"type":"Feature","geometry":{"type":"Point","coordinates":[-106.389183,39.520146]},"properties":{"id":"OpenTMS-Event34013318136","title":"Road Construction-139985","type":"Road Construction","roads":"US-24E","chain_law":false,"closure":false,"pass_relevant":false,"observed":"2026-07-16T20:54:36.593Z","source":"planned"}},{"type":"Feature","geometry":{"type":"Point","coordinates":[-107.540076,39.571428]},"properties":{"id":"OpenTMS-Event34102319413","title":"US 6 Elk Creek Bridge Replacement-139606","type":"Bridge Construction","roads":"US-6W","chain_law":false,"closure":false,"pass_relevant":false,"observed":"2026-07-21T13:10:29.368Z","source":"planned"}},{"type":"Feature","geometry":{"type":"Point","coordinates":[-104.827637,38.903604]},"properties":{"id":"OpenTMS-Event34085377073","title":"I-25 Acceleration/De-Acceleration Lane from Garden of the Gods Road to Fillmore-140385","type":"Road Construction","roads":"I-25S","chain_law":false,"closure":false,"pass_relevant":false,"observed":"2026-07-20T15:55:52.751Z","source":"planned"}},{"type":"Feature","geometry":{"type":"Point","coordinates":[-105.293969,39.742238]},"properties":{"id":"OpenTMS-Event34144056852","title":"Work Element Highway US 6-140755","type":"Road Construction","roads":"US-6E","chain_law":false,"closure":true,"pass_relevant":false,"observed":"2026-07-23T17:10:17.602Z","source":"planned"}},{"type":"Feature","geometry":{"type":"Point","coordinates":[-105.451921,39.743262]},"properties":{"id":"OpenTMS-Event34146155835","title":"I-70 Floyd Hill Project - WO 07/26/26-140850","type":"Road Construction","roads":"I-70E","chain_law":false,"closure":false,"pass_relevant":true,"observed":"2026-07-23T19:52:20.813Z","source":"planned"}},{"type":"Feature","geometry":{"type":"Point","coordinates":[-104.872022,39.508432]},"properties":{"id":"OpenTMS-Event34162563348","title":"PASE ENVIROMENTAL / PWQ / TASK ORDER # 52-140987","type":"Other","roads":"I-25S","chain_law":false,"closure":true,"pass_relevant":false,"observed":"2026-07-24T15:54:43.929Z","source":"planned"}},{"type":"Feature","geometry":{"type":"Point","coordinates":[-104.992239,39.684248]},"properties":{"id":"OpenTMS-Event34135167679","title":"US 85 & West Jewell Ave-129522","type":"Bridge Construction","roads":"US-85S","chain_law":false,"closure":true,"pass_relevant":false,"observed":"2026-07-23T06:04:23.951Z","source":"planned"}},{"type":"Feature","geometry":{"type":"Point","coordinates":[-104.992239,39.684248]},"properties":{"id":"OpenTMS-Event34077590888","title":"US 85 & West Jewell Ave-129519","type":"Bridge Construction","roads":"US-85S","chain_law":false,"closure":true,"pass_relevant":false,"observed":"2026-07-20T06:08:33.715Z","source":"planned"}},{"type":"Feature","geometry":{"type":"Point","coordinates":[-107.65749,37.976069]},"properties":{"id":"OpenTMS-Event34012694474","title":"US 550 Red Mountain Wall & Tunnel Repairs-139971","type":"Tunnel Maintenance","roads":"US-550S","chain_law":false,"closure":false,"pass_relevant":true,"observed":"2026-07-24T15:34:37.277Z","source":"planned"}},{"type":"Feature","geometry":{"type":"Point","coordinates":[-105.16587,39.734865]},"properties":{"id":"OpenTMS-Event34109647698","title":"I-70 Resurfacing - Chief Hosa to Colfax-140578","type":"Other","roads":"I-70W","chain_law":false,"closure":true,"pass_relevant":true,"observed":"2026-07-21T22:18:11.969Z","source":"planned"}},{"type":"Feature","geometry":{"type":"Point","coordinates":[-108.62087,39.072603]},"properties":{"id":"OpenTMS-Event34161729356","title":"CO 340 Resurfacing -140885","type":"Guardrail","roads":"CO-340E","chain_law":false,"closure":false,"pass_relevant":false,"observed":"2026-07-24T14:53:31.462Z","source":"planned"}},{"type":"Feature","geometry":{"type":"Point","coordinates":[-105.170567,40.745568]},"properties":{"id":"OpenTMS-Event34126691355","title":"US 287 Intersection Improvements-140664","type":"Road Construction","roads":"US-287N","chain_law":false,"closure":true,"pass_relevant":false,"observed":"2026-07-22T19:29:33.941Z","source":"planned"}},{"type":"Feature","geometry":{"type":"Point","coordinates":[-107.892942,39.504726]},"properties":{"id":"OpenTMS-Event34146910317","title":"Paving Operations-140733","type":"Paving Operations","roads":"I-70E","chain_law":false,"closure":true,"pass_relevant":true,"observed":"2026-07-23T20:43:22.876Z","source":"planned"}},{"type":"Feature","geometry":{"type":"Point","coordinates":[-104.325544,39.026269]},"properties":{"id":"OpenTMS-Event34129855161","title":"New Project: 26310 - US 24 Resurfacing from Peyton to Calhan-140692","type":"Paving Operations","roads":"US-24E","chain_law":false,"closure":false,"pass_relevant":false,"observed":"2026-07-22T23:26:45.698Z","source":"planned"}},{"type":"Feature","geometry":{"type":"Point","coordinates":[-104.325544,39.026269]},"properties":{"id":"OpenTMS-Event34129855046","title":"New Project: 26310 - US 24 Resurfacing from Peyton to Calhan-140696","type":"Paving Operations","roads":"US-24W","chain_law":false,"closure":false,"pass_relevant":false,"observed":"2026-07-22T23:26:43.007Z","source":"planned"}},{"type":"Feature","geometry":{"type":"Point","coordinates":[-104.896628,39.269724]},"properties":{"id":"OpenTMS-Event34162293074","title":"I-25 Lane Closures at Exit 179 Crystal Valley Parkway-140947","type":"Bridge Construction","roads":"I-25N","chain_law":false,"closure":true,"pass_relevant":false,"observed":"2026-07-24T15:34:54.072Z","source":"planned"}},{"type":"Feature","geometry":{"type":"Point","coordinates":[-105.304221,39.712512]},"properties":{"id":"OpenTMS-Event34006984896","title":"I-70 Resurfacing - Chief Hosa to Colfax-139710","type":"Road Construction","roads":"I-70E","chain_law":false,"closure":true,"pass_relevant":true,"observed":"2026-07-21T22:02:32.114Z","source":"planned"}},{"type":"Feature","geometry":{"type":"Point","coordinates":[-105.144584,39.584068]},"properties":{"id":"OpenTMS-Event34144928590","title":"C-470 Resurfacing-140761","type":"Road Construction","roads":"CO-470E","chain_law":false,"closure":false,"pass_relevant":false,"observed":"2026-07-23T18:15:53.074Z","source":"planned"}},{"type":"Feature","geometry":{"type":"Point","coordinates":[-105.612759,38.26572]},"properties":{"id":"OpenTMS-Event34162292884","title":"CO 69 Resurfacing Hillside to Texas Creek-140958","type":"Paving Operations","roads":"CO-69S","chain_law":false,"closure":false,"pass_relevant":false,"observed":"2026-07-24T15:34:48.139Z","source":"planned"}},{"type":"Feature","geometry":{"type":"Point","coordinates":[-105.062214,39.565971]},"properties":{"id":"OpenTMS-Event34108501189","title":"CTIO Long-Term Stationary Lane Closure-140470","type":"Other","roads":"CO-470E","chain_law":false,"closure":true,"pass_relevant":false,"observed":"2026-07-23T23:51:08.532Z","source":"planned"}},{"type":"Feature","geometry":{"type":"Point","coordinates":[-104.988208,40.00031]},"properties":{"id":"OpenTMS-Event34123163349","title":"I-25 & CO 7 Interim Transit Improvements-140406","type":"Bridge Construction","roads":"CO-7N","chain_law":false,"closure":false,"pass_relevant":false,"observed":"2026-07-22T15:04:41.153Z","source":"planned"}},{"type":"Feature","geometry":{"type":"Point","coordinates":[-105.460524,39.74629]},"properties":{"id":"OpenTMS-Event34146081282","title":"I-70 Floyd Hill Project - WO 07/26/26-140794","type":"Road Construction","roads":"I-70E","chain_law":false,"closure":false,"pass_relevant":true,"observed":"2026-07-23T19:52:05.861Z","source":"planned"}},{"type":"Feature","geometry":{"type":"Point","coordinates":[-104.325544,39.026269]},"properties":{"id":"OpenTMS-Event34129855145","title":"New Project: 26310 - US 24 Resurfacing from Peyton to Calhan-140691","type":"Paving Operations","roads":"US-24E","chain_law":false,"closure":false,"pass_relevant":false,"observed":"2026-07-22T23:26:45.351Z","source":"planned"}},{"type":"Feature","geometry":{"type":"Point","coordinates":[-104.325544,39.026269]},"properties":{"id":"OpenTMS-Event34129854880","title":"New Project: 26310 - US 24 Resurfacing from Peyton to Calhan-140697","type":"Paving Operations","roads":"US-24W","chain_law":false,"closure":false,"pass_relevant":false,"observed":"2026-07-22T23:26:40.115Z","source":"planned"}},{"type":"Feature","geometry":{"type":"Point","coordinates":[-104.827637,38.903604]},"properties":{"id":"OpenTMS-Event34133561186","title":"I-25 Acceleration/De-Aceleration Lanes from Garden of the Gods to Fillmore Street-140665","type":"Road Construction","roads":"I-25S","chain_law":false,"closure":true,"pass_relevant":false,"observed":"2026-07-24T16:09:52.283Z","source":"planned"}},{"type":"Feature","geometry":{"type":"Point","coordinates":[-103.664551,39.262625]},"properties":{"id":"OpenTMS-Event33711524949","title":"I-70 Bridge Maintenance-138257","type":"Bridge Maintenance Operations","roads":"I-70W","chain_law":false,"closure":true,"pass_relevant":true,"observed":"2026-07-23T18:45:58.877Z","source":"planned"}},{"type":"Feature","geometry":{"type":"Point","coordinates":[-105.873388,39.995364]},"properties":{"id":"OpenTMS-Event34146910517","title":"Paving Operations-140860","type":"Paving Operations","roads":"US-40E","chain_law":false,"closure":false,"pass_relevant":false,"observed":"2026-07-23T20:43:27.092Z","source":"planned"}},{"type":"Feature","geometry":{"type":"Point","coordinates":[-105.172376,40.758847]},"properties":{"id":"OpenTMS-Event34160270866","title":"US 287 Intersection Improvements-137545","type":"Road Construction","roads":"US-287N","chain_law":false,"closure":true,"pass_relevant":false,"observed":"2026-07-24T13:05:39.285Z","source":"planned"}},{"type":"Feature","geometry":{"type":"Point","coordinates":[-104.72095,38.838256]},"properties":{"id":"OpenTMS-Event34083084613","title":"Powers Airport Interchange-140341","type":"Road Construction","roads":"US-24W","chain_law":false,"closure":false,"pass_relevant":false,"observed":"2026-07-20T13:03:35.589Z","source":"planned"}},{"type":"Feature","geometry":{"type":"Point","coordinates":[-108.601619,39.06657]},"properties":{"id":"OpenTMS-Event34161729371","title":"CO 340 Resurfacing -140889","type":"Guardrail","roads":"CO-340E","chain_law":false,"closure":true,"pass_relevant":false,"observed":"2026-07-24T14:53:31.808Z","source":"planned"}},{"type":"Feature","geometry":{"type":"Point","coordinates":[-108.578443,37.348712]},"properties":{"id":"OpenTMS-Event34071477984","title":"US 160-140293","type":"Traffic Signal Installation","roads":"US-160E","chain_law":false,"closure":false,"pass_relevant":false,"observed":"2026-07-19T22:23:34.382Z","source":"planned"}},{"type":"Feature","geometry":{"type":"Point","coordinates":[-105.172376,40.758847]},"properties":{"id":"OpenTMS-Event34044885218","title":"US 287 Intersection Improvements-137539","type":"Road Construction","roads":"US-287N","chain_law":false,"closure":true,"pass_relevant":false,"observed":"2026-07-22T19:29:45.181Z","source":"planned"}},{"type":"Feature","geometry":{"type":"Point","coordinates":[-104.975867,39.999804]},"properties":{"id":"OpenTMS-Event34123163420","title":"I-25 & CO 7 Interim Transit Improvements-140421","type":"Bridge Construction","roads":"CO-7S","chain_law":false,"closure":true,"pass_relevant":false,"observed":"2026-07-22T15:04:52.928Z","source":"planned"}},{"type":"Feature","geometry":{"type":"Point","coordinates":[-107.540076,39.571428]},"properties":{"id":"OpenTMS-Event34121547957","title":"US 6 Elk Creek Bridge Replacement-139607","type":"Bridge Construction","roads":"US-6W","chain_law":false,"closure":false,"pass_relevant":false,"observed":"2026-07-22T13:03:43.645Z","source":"planned"}},{"type":"Feature","geometry":{"type":"Point","coordinates":[-104.757966,39.477557]},"properties":{"id":"OpenTMS-Event34084697321","title":"Parker Sidewalks-139665","type":"Other","roads":"CO-83N","chain_law":false,"closure":true,"pass_relevant":false,"observed":"2026-07-20T15:04:51.123Z","source":"planned"}},{"type":"Feature","geometry":{"type":"Point","coordinates":[-107.303366,39.561917]},"properties":{"id":"OpenTMS-Event34083075215","title":"I-70 Glenwood Canyon bridge joints-138574","type":"Bridge Construction","roads":"I-70E","chain_law":false,"closure":false,"pass_relevant":true,"observed":"2026-07-20T13:02:40.699Z","source":"planned"}},{"type":"Feature","geometry":{"type":"Point","coordinates":[-104.975867,39.999804]},"properties":{"id":"OpenTMS-Event34142348726","title":"I-25 & CO 7 Interim Transit Improvements-140422","type":"Bridge Construction","roads":"CO-7S","chain_law":false,"closure":true,"pass_relevant":false,"observed":"2026-07-23T15:02:09.819Z","source":"planned"}},{"type":"Feature","geometry":{"type":"Point","coordinates":[-105.293969,39.742238]},"properties":{"id":"OpenTMS-Event34144056882","title":"Work Element Highway US 6-140749","type":"Road Construction","roads":"US-6E","chain_law":false,"closure":false,"pass_relevant":false,"observed":"2026-07-23T17:10:18.764Z","source":"planned"}},{"type":"Feature","geometry":{"type":"Point","coordinates":[-104.827637,38.903604]},"properties":{"id":"OpenTMS-Event34151296429","title":"I-25 Acceleration/De-Aceleration Lanes from Garden of the Gods to Fillmore Street-140632","type":"Road Construction","roads":"I-25S","chain_law":false,"closure":true,"pass_relevant":false,"observed":"2026-07-24T16:10:02.593Z","source":"planned"}},{"type":"Feature","geometry":{"type":"Point","coordinates":[-104.833272,38.867223]},"properties":{"id":"OpenTMS-Event34131141658","title":"I-25 Acceleration/De-Aceleration Lanes from Garden of the Gods to Fillmore Street-140622","type":"Road Construction","roads":"I-25N","chain_law":false,"closure":true,"pass_relevant":false,"observed":"2026-07-24T16:10:04.625Z","source":"planned"}},{"type":"Feature","geometry":{"type":"Point","coordinates":[-107.02208,37.267127]},"properties":{"id":"OpenTMS-Event34150466917","title":"US 160 Pagosa Springs Reconstruction-139094","type":"Road Construction","roads":"US-160W","chain_law":false,"closure":true,"pass_relevant":false,"observed":"2026-07-24T01:05:22.299Z","source":"planned"}},{"type":"Feature","geometry":{"type":"Point","coordinates":[-105.172376,40.758847]},"properties":{"id":"OpenTMS-Event34025832110","title":"US 287 Intersection Improvements-137538","type":"Road Construction","roads":"US-287N","chain_law":false,"closure":true,"pass_relevant":false,"observed":"2026-07-22T19:29:44.602Z","source":"planned"}},{"type":"Feature","geometry":{"type":"Point","coordinates":[-105.244754,40.022897]},"properties":{"id":"OpenTMS-Event34163242740","title":"CO 157 Concrete Pavement Rehabilitation -141017","type":"Concrete Slab Replacement","roads":"CO-157N","chain_law":false,"closure":false,"pass_relevant":false,"observed":"2026-07-24T16:44:49.491Z","source":"planned"}},{"type":"Feature","geometry":{"type":"Point","coordinates":[-105.443362,39.74384]},"properties":{"id":"OpenTMS-Event34146087935","title":"I-70 Floyd Hill Project - WO 07/26/26-140818","type":"Road Construction","roads":"I-70W","chain_law":false,"closure":false,"pass_relevant":true,"observed":"2026-07-23T19:52:13.494Z","source":"planned"}},{"type":"Feature","geometry":{"type":"Point","coordinates":[-103.672876,39.267734]},"properties":{"id":"OpenTMS-Event34145330461","title":"Statewide Scales-140781","type":"Road Construction","roads":"I-70W","chain_law":false,"closure":true,"pass_relevant":false,"observed":"2026-07-24T16:10:06.890Z","source":"planned"}},{"type":"Feature","geometry":{"type":"Point","coordinates":[-105.06145,38.992946]},"properties":{"id":"OpenTMS-Event34026652118","title":"CO 67 Capital project-139674","type":"Paving Operations","roads":"CO-67N","chain_law":false,"closure":false,"pass_relevant":false,"observed":"2026-07-17T14:19:41.458Z","source":"planned"}},{"type":"Feature","geometry":{"type":"Point","coordinates":[-103.748165,38.207171]},"properties":{"id":"OpenTMS-Event34140804868","title":"Ordway Intersection Project-140644","type":"Road Construction","roads":"CO-71N","chain_law":false,"closure":true,"pass_relevant":false,"observed":"2026-07-23T13:05:52.374Z","source":"planned"}},{"type":"Feature","geometry":{"type":"Point","coordinates":[-105.23404,40.050204]},"properties":{"id":"OpenTMS-Event34145531853","title":"CO 119 Safety, Mobility & Bikeway Construction - WO 07/26/26-140790","type":"Road Construction","roads":"CO-119N","chain_law":false,"closure":false,"pass_relevant":false,"observed":"2026-07-23T19:01:06.199Z","source":"planned"}},{"type":"Feature","geometry":{"type":"Point","coordinates":[-104.699362,39.740098]},"properties":{"id":"OpenTMS-Event34077590842","title":"I-70 Aerotropolis Interchange-138106","type":"Bridge Construction","roads":"I-70E","chain_law":false,"closure":true,"pass_relevant":true,"observed":"2026-07-20T06:08:29.036Z","source":"planned"}},{"type":"Feature","geometry":{"type":"Point","coordinates":[-105.266408,40.870451]},"properties":{"id":"OpenTMS-Event34102325904","title":"US 287 Intersection Improvements-138447","type":"Road Construction","roads":"US-287N","chain_law":false,"closure":true,"pass_relevant":true,"observed":"2026-07-22T19:29:51.411Z","source":"planned"}},{"type":"Feature","geometry":{"type":"Point","coordinates":[-104.102469,39.673948]},"properties":{"id":"OpenTMS-Event34126557885","title":"I-70 Deer Trail Bridge Rehabs-140652","type":"Bridge Construction","roads":"I-70E","chain_law":false,"closure":true,"pass_relevant":true,"observed":"2026-07-22T19:19:32.209Z","source":"planned"}},{"type":"Feature","geometry":{"type":"Point","coordinates":[-104.975945,39.999658]},"properties":{"id":"OpenTMS-Event34090558292","title":"I-25 & CO 7 Interim Transit Improvements-140414","type":"Bridge Construction","roads":"CO-7N","chain_law":false,"closure":true,"pass_relevant":false,"observed":"2026-07-20T22:27:05.135Z","source":"planned"}},{"type":"Feature","geometry":{"type":"Point","coordinates":[-104.975867,39.999804]},"properties":{"id":"OpenTMS-Event34090558311","title":"I-25 & CO 7 Interim Transit Improvements-140418","type":"Bridge Construction","roads":"CO-7S","chain_law":false,"closure":true,"pass_relevant":false,"observed":"2026-07-20T22:27:05.859Z","source":"planned"}},{"type":"Feature","geometry":{"type":"Point","coordinates":[-104.868365,39.537249]},"properties":{"id":"OpenTMS-Event33454131159","title":"I-25 Lone Tree Mobility Hub -137022","type":"Other","roads":"I-25N","chain_law":false,"closure":false,"pass_relevant":false,"observed":"2026-07-24T17:25:59.904Z","source":"planned"}},{"type":"Feature","geometry":{"type":"Point","coordinates":[-107.247504,40.497195]},"properties":{"id":"OpenTMS-Event34083075022","title":"US 40 over Shelton Ditch-138279","type":"Road Construction","roads":"US-40W","chain_law":false,"closure":false,"pass_relevant":false,"observed":"2026-07-20T13:02:38.330Z","source":"planned"}},{"type":"Feature","geometry":{"type":"Point","coordinates":[-107.892942,39.504726]},"properties":{"id":"OpenTMS-Event34146910368","title":"Paving Operations-140736","type":"Paving Operations","roads":"I-70E","chain_law":false,"closure":true,"pass_relevant":true,"observed":"2026-07-23T20:43:24.091Z","source":"planned"}},{"type":"Feature","geometry":{"type":"Point","coordinates":[-104.833272,38.867223]},"properties":{"id":"OpenTMS-Event34085377212","title":"I-25 Acceleration/De-Acceleration Lane from Garden of the Gods Road to Fillmore-140378","type":"Road Construction","roads":"I-25N","chain_law":false,"closure":false,"pass_relevant":false,"observed":"2026-07-20T15:55:55.605Z","source":"planned"}},{"type":"Feature","geometry":{"type":"Point","coordinates":[-105.028843,39.573336]},"properties":{"id":"OpenTMS-Event34039277080","title":"Santa Fe Drive Mineral Ave Operational Improvements-135431","type":"Road Construction","roads":"US-85S","chain_law":false,"closure":true,"pass_relevant":false,"observed":"2026-07-23T03:19:40.749Z","source":"planned"}},{"type":"Feature","geometry":{"type":"Point","coordinates":[-105.032631,39.565213]},"properties":{"id":"OpenTMS-Event30959251012","title":"(DR) - U.S. 85B (SANTA FE) Right Turn lane Closure-126885","type":"Bridge Repair","roads":"(DR) - U.S. 85B (SANTA FE) ","chain_law":false,"closure":true,"pass_relevant":false,"observed":"2026-07-16T16:39:47.925Z","source":"planned"}},{"type":"Feature","geometry":{"type":"Point","coordinates":[-104.931545,39.803666]},"properties":{"id":"OpenTMS-Event34142620366","title":"Various intersection & median work – Vasquez Blvd between I-270 and 64th Ave-140741","type":"Road Construction","roads":"US-6E","chain_law":false,"closure":true,"pass_relevant":false,"observed":"2026-07-23T15:22:31.893Z","source":"planned"}},{"type":"Feature","geometry":{"type":"Point","coordinates":[-105.451921,39.743262]},"properties":{"id":"OpenTMS-Event34146155530","title":"I-70 Floyd Hill Project - WO 07/26/26-140847","type":"Road Construction","roads":"I-70E","chain_law":false,"closure":false,"pass_relevant":true,"observed":"2026-07-23T19:52:24.862Z","source":"planned"}},{"type":"Feature","geometry":{"type":"Point","coordinates":[-106.304065,39.642991]},"properties":{"id":"OpenTMS-Event34158612370","title":"I-70 West Vail Pass — Lane Closures-140392","type":"Road Construction","roads":"I-70W","chain_law":false,"closure":true,"pass_relevant":true,"observed":"2026-07-24T11:03:40.127Z","source":"planned"}},{"type":"Feature","geometry":{"type":"Point","coordinates":[-108.578443,37.348712]},"properties":{"id":"OpenTMS-Event34071478001","title":"US 160-140294","type":"Traffic Signal Installation","roads":"US-160E","chain_law":false,"closure":false,"pass_relevant":false,"observed":"2026-07-19T22:23:35.064Z","source":"planned"}},{"type":"Feature","geometry":{"type":"Point","coordinates":[-105.431267,39.742494]},"properties":{"id":"OpenTMS-Event34146084354","title":"I-70 Floyd Hill Project - WO 07/26/26-140802","type":"Road Construction","roads":"US-40E","chain_law":false,"closure":false,"pass_relevant":true,"observed":"2026-07-23T19:52:07.531Z","source":"planned"}},{"type":"Feature","geometry":{"type":"Point","coordinates":[-105.293969,39.742238]},"properties":{"id":"OpenTMS-Event34144056897","title":"Work Element Highway US 6-140751","type":"Road Construction","roads":"US-6E","chain_law":false,"closure":true,"pass_relevant":false,"observed":"2026-07-23T17:10:19.322Z","source":"planned"}},{"type":"Feature","geometry":{"type":"Point","coordinates":[-105.460524,39.74629]},"properties":{"id":"OpenTMS-Event34146088057","title":"I-70 Floyd Hill Project - WO 07/26/26-140792","type":"Road Construction","roads":"I-70E","chain_law":false,"closure":false,"pass_relevant":true,"observed":"2026-07-23T19:52:25.412Z","source":"planned"}},{"type":"Feature","geometry":{"type":"Point","coordinates":[-105.06145,38.992946]},"properties":{"id":"OpenTMS-Event34008013075","title":"CO 67 Capital project-139673","type":"Paving Operations","roads":"CO-67N","chain_law":false,"closure":false,"pass_relevant":false,"observed":"2026-07-16T14:17:42.056Z","source":"planned"}},{"type":"Feature","geometry":{"type":"Point","coordinates":[-108.601619,39.06657]},"properties":{"id":"OpenTMS-Event34161729492","title":"CO 340 Resurfacing -140893","type":"Guardrail","roads":"CO-340E","chain_law":false,"closure":true,"pass_relevant":false,"observed":"2026-07-24T14:53:33.251Z","source":"planned"}},{"type":"Feature","geometry":{"type":"Point","coordinates":[-106.248173,39.581298]},"properties":{"id":"OpenTMS-Event34087874561","title":"I-70 West Vail Pass – Traffic Holds-140399","type":"Rock Work","roads":"I-70W","chain_law":false,"closure":false,"pass_relevant":true,"observed":"2026-07-20T19:04:13.110Z","source":"planned"}},{"type":"Feature","geometry":{"type":"Point","coordinates":[-104.325544,39.026269]},"properties":{"id":"OpenTMS-Event34129855177","title":"New Project: 26310 - US 24 Resurfacing from Peyton to Calhan-140694","type":"Paving Operations","roads":"US-24W","chain_law":false,"closure":false,"pass_relevant":false,"observed":"2026-07-22T23:26:46.046Z","source":"planned"}},{"type":"Feature","geometry":{"type":"Point","coordinates":[-104.827637,38.903604]},"properties":{"id":"OpenTMS-Event34127842434","title":"I-25 Acceleration/De-Aceleration Lanes from Garden of the Gods to Fillmore Street-140618","type":"Road Construction","roads":"I-25S","chain_law":false,"closure":true,"pass_relevant":false,"observed":"2026-07-24T16:10:03.224Z","source":"planned"}},{"type":"Feature","geometry":{"type":"Point","coordinates":[-105.172376,40.758847]},"properties":{"id":"OpenTMS-Event34064076164","title":"US 287 Intersection Improvements-137540","type":"Road Construction","roads":"US-287N","chain_law":false,"closure":true,"pass_relevant":false,"observed":"2026-07-22T19:29:46.541Z","source":"planned"}},{"type":"Feature","geometry":{"type":"Point","coordinates":[-105.304221,39.712512]},"properties":{"id":"OpenTMS-Event34131135119","title":"I-70 Resurfacing - Chief Hosa to Colfax-140568","type":"Other","roads":"I-70E","chain_law":false,"closure":false,"pass_relevant":true,"observed":"2026-07-23T01:02:59.926Z","source":"planned"}},{"type":"Feature","geometry":{"type":"Point","coordinates":[-104.833272,38.867223]},"properties":{"id":"OpenTMS-Event34150480298","title":"I-25 Acceleration/De-Aceleration Lanes from Garden of the Gods to Fillmore Street-140623","type":"Road Construction","roads":"I-25N","chain_law":false,"closure":true,"pass_relevant":false,"observed":"2026-07-24T16:09:50.561Z","source":"planned"}},{"type":"Feature","geometry":{"type":"Point","coordinates":[-104.939575,38.371691]},"properties":{"id":"OpenTMS-Event34146769334","title":"Paving Operations-140606","type":"Paving Operations","roads":"US-50E","chain_law":false,"closure":true,"pass_relevant":false,"observed":"2026-07-23T20:33:10.909Z","source":"planned"}},{"type":"Feature","geometry":{"type":"Point","coordinates":[-105.293969,39.742238]},"properties":{"id":"OpenTMS-Event34144056837","title":"Work Element Highway US 6-140754","type":"Road Construction","roads":"US-6E","chain_law":false,"closure":true,"pass_relevant":false,"observed":"2026-07-23T17:10:17.053Z","source":"planned"}},{"type":"Feature","geometry":{"type":"Point","coordinates":[-107.02208,37.267127]},"properties":{"id":"OpenTMS-Event34035244311","title":"US 160 Pagosa Springs Reconstruction-139088","type":"Road Construction","roads":"US-160W","chain_law":false,"closure":true,"pass_relevant":false,"observed":"2026-07-18T01:01:31.063Z","source":"planned"}},{"type":"Feature","geometry":{"type":"Point","coordinates":[-105.028843,39.573336]},"properties":{"id":"OpenTMS-Event34077590767","title":"Santa Fe Drive Mineral Ave Operational Improvements-135433","type":"Road Construction","roads":"US-85S","chain_law":false,"closure":true,"pass_relevant":false,"observed":"2026-07-23T03:19:41.695Z","source":"planned"}},{"type":"Feature","geometry":{"type":"Point","coordinates":[-104.975867,39.999804]},"properties":{"id":"OpenTMS-Event34090558330","title":"I-25 & CO 7 Interim Transit Improvements-140419","type":"Bridge Construction","roads":"CO-7S","chain_law":false,"closure":true,"pass_relevant":false,"observed":"2026-07-20T22:27:06.676Z","source":"planned"}},{"type":"Feature","geometry":{"type":"Point","coordinates":[-108.354255,39.106075]},"properties":{"id":"OpenTMS-Event34012559365","title":"US 6 Palisade Intersection Improvements-139568","type":"Road Construction","roads":"US-6E","chain_law":false,"closure":false,"pass_relevant":false,"observed":"2026-07-16T19:57:38.933Z","source":"planned"}},{"type":"Feature","geometry":{"type":"Point","coordinates":[-108.578443,37.348712]},"properties":{"id":"OpenTMS-Event34071477967","title":"US 160-140292","type":"Traffic Signal Installation","roads":"US-160E","chain_law":false,"closure":false,"pass_relevant":false,"observed":"2026-07-19T22:23:33.755Z","source":"planned"}},{"type":"Feature","geometry":{"type":"Point","coordinates":[-104.992706,39.680982]},"properties":{"id":"OpenTMS-Event34058501612","title":"US 85 & West Jewell Ave-136703","type":"Bridge Construction","roads":"US-85S","chain_law":false,"closure":false,"pass_relevant":false,"observed":"2026-07-19T06:05:09.901Z","source":"planned"}},{"type":"Feature","geometry":{"type":"Point","coordinates":[-107.303366,39.561917]},"properties":{"id":"OpenTMS-Event34064069356","title":"I-70 Glenwood Canyon bridge joints-138573","type":"Bridge Construction","roads":"I-70E","chain_law":false,"closure":false,"pass_relevant":true,"observed":"2026-07-19T13:04:47.843Z","source":"planned"}},{"type":"Feature","geometry":{"type":"Point","coordinates":[-105.06145,38.992946]},"properties":{"id":"OpenTMS-Event34105160437","title":"CO 67 Capital project-140438","type":"Paving Operations","roads":"CO-67N","chain_law":false,"closure":false,"pass_relevant":false,"observed":"2026-07-21T16:44:02.307Z","source":"planned"}},{"type":"Feature","geometry":{"type":"Point","coordinates":[-105.293969,39.742238]},"properties":{"id":"OpenTMS-Event34144056807","title":"Work Element Highway US 6-140747","type":"Road Construction","roads":"US-6E","chain_law":false,"closure":false,"pass_relevant":false,"observed":"2026-07-23T17:10:15.829Z","source":"planned"}},{"type":"Feature","geometry":{"type":"Point","coordinates":[-107.247504,40.497195]},"properties":{"id":"OpenTMS-Event34006971303","title":"US 40 over Shelton Ditch-138277","type":"Road Construction","roads":"US-40W","chain_law":false,"closure":false,"pass_relevant":false,"observed":"2026-07-16T13:00:56.139Z","source":"planned"}},{"type":"Feature","geometry":{"type":"Point","coordinates":[-108.62087,39.072603]},"properties":{"id":"OpenTMS-Event34070340234","title":"CO 340-140224","type":"Road Construction","roads":"CO-340E","chain_law":false,"closure":false,"pass_relevant":false,"observed":"2026-07-19T20:57:13.303Z","source":"planned"}},{"type":"Feature","geometry":{"type":"Point","coordinates":[-105.854351,39.701885]},"properties":{"id":"OpenTMS-Event34161736274","title":"R3 - I-70 Chain Station Technology & Communications Upgrades-140933","type":"Other","roads":"I-70W","chain_law":true,"closure":true,"pass_relevant":true,"observed":"2026-07-24T14:53:40.419Z","source":"planned"}},{"type":"Feature","geometry":{"type":"Point","coordinates":[-104.757966,39.477557]},"properties":{"id":"OpenTMS-Event34065699592","title":"Parker Sidewalks-139664","type":"Other","roads":"CO-83N","chain_law":false,"closure":true,"pass_relevant":false,"observed":"2026-07-19T15:06:46.659Z","source":"planned"}},{"type":"Feature","geometry":{"type":"Point","coordinates":[-105.315188,39.636613]},"properties":{"id":"OpenTMS-Event34147593782","title":"CO 74 Resurfacing -140872","type":"Paving Operations","roads":"CO-74E","chain_law":false,"closure":false,"pass_relevant":false,"observed":"2026-07-24T15:44:51.480Z","source":"planned"}},{"type":"Feature","geometry":{"type":"Point","coordinates":[-109.024852,40.866113]},"properties":{"id":"OpenTMS-Event33734873792","title":"CO-318 Browns Park Culvert Replacement-138684","type":"Culvert Maintenance","roads":"CO-318W","chain_law":false,"closure":false,"pass_relevant":false,"observed":"2026-07-16T20:02:51.690Z","source":"planned"}},{"type":"Feature","geometry":{"type":"Point","coordinates":[-107.661593,38.002397]},"properties":{"id":"OpenTMS-Event34162292140","title":"US 550 Red Mountain Wall & Tunnel Repairs-140966","type":"Tunnel Maintenance","roads":"US-550S","chain_law":false,"closure":false,"pass_relevant":true,"observed":"2026-07-24T15:34:38.734Z","source":"planned"}},{"type":"Feature","geometry":{"type":"Point","coordinates":[-105.23404,40.050204]},"properties":{"id":"OpenTMS-Event34145531872","title":"CO 119 Safety, Mobility & Bikeway Construction - WO 07/26/26-140791","type":"Road Construction","roads":"CO-119N","chain_law":false,"closure":false,"pass_relevant":false,"observed":"2026-07-23T19:01:06.666Z","source":"planned"}},{"type":"Feature","geometry":{"type":"Point","coordinates":[-105.88237,39.688787]},"properties":{"id":"OpenTMS-Event34161736396","title":"R3 - I-70 Chain Station Technology & Communications Upgrades-140939","type":"Other","roads":"I-70W","chain_law":true,"closure":true,"pass_relevant":true,"observed":"2026-07-24T14:53:42.926Z","source":"planned"}},{"type":"Feature","geometry":{"type":"Point","coordinates":[-108.978957,39.207788]},"properties":{"id":"OpenTMS-Event34071610038","title":"I-70 culvert-140309","type":"Culvert Maintenance","roads":"I-70E","chain_law":false,"closure":true,"pass_relevant":true,"observed":"2026-07-19T22:33:20.754Z","source":"planned"}},{"type":"Feature","geometry":{"type":"Point","coordinates":[-104.699362,39.740098]},"properties":{"id":"OpenTMS-Event34135167604","title":"I-70 Aerotropolis Interchange-138109","type":"Bridge Construction","roads":"I-70E","chain_law":false,"closure":true,"pass_relevant":true,"observed":"2026-07-23T06:04:18.061Z","source":"planned"}},{"type":"Feature","geometry":{"type":"Point","coordinates":[-105.172376,40.758847]},"properties":{"id":"OpenTMS-Event34006991722","title":"US 287 Intersection Improvements-137537","type":"Road Construction","roads":"US-287N","chain_law":false,"closure":true,"pass_relevant":false,"observed":"2026-07-22T19:29:44.076Z","source":"planned"}},{"type":"Feature","geometry":{"type":"Point","coordinates":[-105.007442,39.740279]},"properties":{"id":"OpenTMS-Event34096640892","title":"Colfax Downtown Rail Reconstruction Part 2-136083","type":"Road Construction","roads":"US-40W","chain_law":false,"closure":true,"pass_relevant":false,"observed":"2026-07-21T06:05:07.507Z","source":"planned"}},{"type":"Feature","geometry":{"type":"Point","coordinates":[-107.86669,37.233631]},"properties":{"id":"OpenTMS-Event34146768270","title":"Paving Operations-140596","type":"Paving Operations","roads":"US-160E","chain_law":false,"closure":true,"pass_relevant":false,"observed":"2026-07-23T20:33:07.991Z","source":"planned"}},{"type":"Feature","geometry":{"type":"Point","coordinates":[-104.975945,39.999658]},"properties":{"id":"OpenTMS-Event34142349222","title":"I-25 & CO 7 Interim Transit Improvements-140417","type":"Bridge Construction","roads":"CO-7N","chain_law":false,"closure":true,"pass_relevant":false,"observed":"2026-07-23T15:02:10.580Z","source":"planned"}},{"type":"Feature","geometry":{"type":"Point","coordinates":[-105.293969,39.742238]},"properties":{"id":"OpenTMS-Event34144056822","title":"Work Element Highway US 6-140750","type":"Road Construction","roads":"US-6E","chain_law":false,"closure":false,"pass_relevant":false,"observed":"2026-07-23T17:10:16.488Z","source":"planned"}},{"type":"Feature","geometry":{"type":"Point","coordinates":[-104.965056,39.779907]},"properties":{"id":"OpenTMS-Event34093405789","title":"FLS Sprinkler Testing-139718","type":"Tunnel Maintenance","roads":"(C) - BRIGHTON BLVD","chain_law":false,"closure":true,"pass_relevant":false,"observed":"2026-07-21T02:01:34.845Z","source":"planned"}},{"type":"Feature","geometry":{"type":"Point","coordinates":[-106.311793,39.361609]},"properties":{"id":"OpenTMS-Event34013318166","title":"Road Construction-139993","type":"Road Construction","roads":"US-24E","chain_law":false,"closure":false,"pass_relevant":false,"observed":"2026-07-16T20:54:37.449Z","source":"planned"}},{"type":"Feature","geometry":{"type":"Point","coordinates":[-106.044535,39.640308]},"properties":{"id":"OpenTMS-Event34064069384","title":"I-70 Straight Creek Culvert Repairs-138546","type":"Culvert Maintenance","roads":"I-70W","chain_law":false,"closure":false,"pass_relevant":true,"observed":"2026-07-19T13:04:50.220Z","source":"planned"}},{"type":"Feature","geometry":{"type":"Point","coordinates":[-104.606849,39.361574]},"properties":{"id":"OpenTMS-Event34133166159","title":"25632 - CO 86 Resurfacing in Elizabeth-140720","type":"Paving Operations","roads":"CO-86W","chain_law":false,"closure":false,"pass_relevant":false,"observed":"2026-07-23T03:34:52.712Z","source":"planned"}},{"type":"Feature","geometry":{"type":"Point","coordinates":[-105.234263,39.698286]},"properties":{"id":"OpenTMS-Event34154512492","title":"I-70 Resurfacing - Chief Hosa to Colfax-140550","type":"IT or Fiber Optics","roads":"I-70E","chain_law":false,"closure":true,"pass_relevant":true,"observed":"2026-07-24T06:03:12.685Z","source":"planned"}},{"type":"Feature","geometry":{"type":"Point","coordinates":[-107.928865,39.500496]},"properties":{"id":"OpenTMS-Event34146910140","title":"Paving Operations-140729","type":"Paving Operations","roads":"I-70E","chain_law":false,"closure":true,"pass_relevant":true,"observed":"2026-07-23T20:43:19.709Z","source":"planned"}},{"type":"Feature","geometry":{"type":"Point","coordinates":[-104.325544,39.026269]},"properties":{"id":"OpenTMS-Event34129855017","title":"New Project: 26310 - US 24 Resurfacing from Peyton to Calhan-140695","type":"Paving Operations","roads":"US-24W","chain_law":false,"closure":false,"pass_relevant":false,"observed":"2026-07-22T23:26:42.675Z","source":"planned"}},{"type":"Feature","geometry":{"type":"Point","coordinates":[-105.460455,39.746457]},"properties":{"id":"OpenTMS-Event34146087840","title":"I-70 Floyd Hill Project - WO 07/26/26-140823","type":"Road Construction","roads":"I-70W","chain_law":false,"closure":false,"pass_relevant":true,"observed":"2026-07-23T19:52:12.370Z","source":"planned"}},{"type":"Feature","geometry":{"type":"Point","coordinates":[-104.325544,39.026269]},"properties":{"id":"OpenTMS-Event34142030332","title":"New Project: 26310 - US 24 Resurfacing from Peyton to Calhan-140693","type":"Paving Operations","roads":"US-24E","chain_law":false,"closure":false,"pass_relevant":false,"observed":"2026-07-23T14:37:40.523Z","source":"planned"}},{"type":"Feature","geometry":{"type":"Point","coordinates":[-103.800352,37.797232]},"properties":{"id":"OpenTMS-Event34162836598","title":"US 350 Resurfacing in Otero County-141010","type":"Paving Operations","roads":"US-350E","chain_law":false,"closure":false,"pass_relevant":false,"observed":"2026-07-24T16:14:48.290Z","source":"planned"}},{"type":"Feature","geometry":{"type":"Point","coordinates":[-105.234263,39.698286]},"properties":{"id":"OpenTMS-Event34109367842","title":"I-70 Resurfacing - Chief Hosa to Colfax-140556","type":"IT or Fiber Optics","roads":"I-70E","chain_law":false,"closure":true,"pass_relevant":true,"observed":"2026-07-21T22:18:29.862Z","source":"planned"}},{"type":"Feature","geometry":{"type":"Point","coordinates":[-105.144584,39.584068]},"properties":{"id":"OpenTMS-Event34144928644","title":"C-470 Resurfacing-140764","type":"Road Construction","roads":"CO-470E","chain_law":false,"closure":false,"pass_relevant":false,"observed":"2026-07-23T18:15:54.240Z","source":"planned"}},{"type":"Feature","geometry":{"type":"Point","coordinates":[-105.861553,37.469713]},"properties":{"id":"OpenTMS-Event34124243649","title":"South Central Colorado Bridge Preventative Maintenance-140598","type":"Bridge Maintenance Operations","roads":"US-160E","chain_law":false,"closure":true,"pass_relevant":false,"observed":"2026-07-23T16:29:08.732Z","source":"planned"}},{"type":"Feature","geometry":{"type":"Point","coordinates":[-104.833272,38.867223]},"properties":{"id":"OpenTMS-Event34127842381","title":"I-25 Acceleration/De-Aceleration Lanes from Garden of the Gods to Fillmore Street-140625","type":"Road Construction","roads":"I-25N","chain_law":false,"closure":true,"pass_relevant":false,"observed":"2026-07-24T16:09:57.647Z","source":"planned"}},{"type":"Feature","geometry":{"type":"Point","coordinates":[-107.02208,37.267127]},"properties":{"id":"OpenTMS-Event34015930504","title":"US 160 Pagosa Springs Reconstruction-139087","type":"Road Construction","roads":"US-160W","chain_law":false,"closure":true,"pass_relevant":false,"observed":"2026-07-17T01:03:03.865Z","source":"planned"}},{"type":"Feature","geometry":{"type":"Point","coordinates":[-104.965056,39.779907]},"properties":{"id":"OpenTMS-Event34074422483","title":"FLS Sprinkler Testing-139716","type":"Tunnel Maintenance","roads":"(C) - BRIGHTON BLVD","chain_law":false,"closure":true,"pass_relevant":false,"observed":"2026-07-20T02:05:13.535Z","source":"planned"}},{"type":"Feature","geometry":{"type":"Point","coordinates":[-108.069294,38.756289]},"properties":{"id":"OpenTMS-Event34102319288","title":"US 50 Delta Resurfacing-138526","type":"Paving Operations","roads":"US-50E","chain_law":false,"closure":false,"pass_relevant":false,"observed":"2026-07-21T13:10:19.937Z","source":"planned"}},{"type":"Feature","geometry":{"type":"Point","coordinates":[-103.748165,38.207171]},"properties":{"id":"OpenTMS-Event34126557746","title":"Ordway Intersection Project-140641","type":"Road Construction","roads":"CO-71N","chain_law":false,"closure":true,"pass_relevant":false,"observed":"2026-07-22T19:19:29.348Z","source":"planned"}},{"type":"Feature","geometry":{"type":"Point","coordinates":[-102.945238,39.281356]},"properties":{"id":"OpenTMS-Event33990564038","title":"I-70 Seibert-Stratton Roadway Improvements-139794","type":"Bridge Construction","roads":"I-70E","chain_law":false,"closure":true,"pass_relevant":true,"observed":"2026-07-15T16:51:11.770Z","source":"planned"}},{"type":"Feature","geometry":{"type":"Point","coordinates":[-104.827637,38.903604]},"properties":{"id":"OpenTMS-Event34127842242","title":"I-25 Acceleration/De-Aceleration Lanes from Garden of the Gods to Fillmore Street-140658","type":"Road Construction","roads":"I-25S","chain_law":false,"closure":true,"pass_relevant":false,"observed":"2026-07-24T16:09:47.650Z","source":"planned"}},{"type":"Feature","geometry":{"type":"Point","coordinates":[-106.009184,37.092952]},"properties":{"id":"OpenTMS-Event34012553191","title":"Southwest CO Culvert Repairs-139969","type":"Culvert Maintenance","roads":"US-285N","chain_law":false,"closure":false,"pass_relevant":false,"observed":"2026-07-16T19:57:33.636Z","source":"planned"}},{"type":"Feature","geometry":{"type":"Point","coordinates":[-104.833272,38.867223]},"properties":{"id":"OpenTMS-Event34085043147","title":"I-25 Acceleration/De-Acceleration Lane from Garden of the Gods Road to Fillmore-140175","type":"Road Construction","roads":"I-25N","chain_law":false,"closure":true,"pass_relevant":false,"observed":"2026-07-20T15:31:04.044Z","source":"planned"}},{"type":"Feature","geometry":{"type":"Point","coordinates":[-104.606849,39.361574]},"properties":{"id":"OpenTMS-Event34133166142","title":"25632 - CO 86 Resurfacing in Elizabeth-140719","type":"Paving Operations","roads":"CO-86E","chain_law":false,"closure":true,"pass_relevant":false,"observed":"2026-07-23T03:34:52.276Z","source":"planned"}},{"type":"Feature","geometry":{"type":"Point","coordinates":[-106.304065,39.642991]},"properties":{"id":"OpenTMS-Event34139177180","title":"I-70 West Vail Pass — Lane Closures-140391","type":"Road Construction","roads":"I-70W","chain_law":false,"closure":true,"pass_relevant":true,"observed":"2026-07-23T11:04:02.623Z","source":"planned"}},{"type":"Feature","geometry":{"type":"Point","coordinates":[-107.86669,37.233631]},"properties":{"id":"OpenTMS-Event34012033254","title":"Paving Operations-139786","type":"Paving Operations","roads":"US-160E","chain_law":false,"closure":true,"pass_relevant":false,"observed":"2026-07-16T19:16:54.958Z","source":"planned"}},{"type":"Feature","geometry":{"type":"Point","coordinates":[-108.630364,39.102654]},"properties":{"id":"OpenTMS-Event33598052259","title":"I-70B East of Third Street Improvements-137849","type":"Road Construction","roads":"CO-70E","chain_law":false,"closure":true,"pass_relevant":true,"observed":"2026-07-24T15:04:03.362Z","source":"planned"}},{"type":"Feature","geometry":{"type":"Point","coordinates":[-104.325544,39.026269]},"properties":{"id":"OpenTMS-Event34141951671","title":"New Project: 26310 - US 24 Resurfacing from Peyton to Calhan-140698","type":"Paving Operations","roads":"US-24W","chain_law":false,"closure":false,"pass_relevant":false,"observed":"2026-07-23T14:32:11.200Z","source":"planned"}},{"type":"Feature","geometry":{"type":"Point","coordinates":[-107.247504,40.497195]},"properties":{"id":"OpenTMS-Event34121541413","title":"US 40 over Shelton Ditch-138281","type":"Road Construction","roads":"US-40W","chain_law":false,"closure":false,"pass_relevant":false,"observed":"2026-07-22T13:03:28.895Z","source":"planned"}},{"type":"Feature","geometry":{"type":"Point","coordinates":[-104.896628,39.269724]},"properties":{"id":"OpenTMS-Event34162293030","title":"I-25 Lane Closures at Exit 179 Crystal Valley Parkway-140946","type":"Bridge Construction","roads":"I-25N","chain_law":false,"closure":true,"pass_relevant":false,"observed":"2026-07-24T15:34:53.639Z","source":"planned"}},{"type":"Feature","geometry":{"type":"Point","coordinates":[-107.179501,40.491294]},"properties":{"id":"OpenTMS-Event34131121700","title":"US 40 Milner Resurfacing-138310","type":"Road Construction","roads":"US-40W","chain_law":false,"closure":false,"pass_relevant":false,"observed":"2026-07-23T01:01:46.273Z","source":"planned"}},{"type":"Feature","geometry":{"type":"Point","coordinates":[-104.980283,40.288552]},"properties":{"id":"OpenTMS-Event34126629928","title":"I-25 North Express Lanes Widening Segment 5-140655","type":"Other","roads":"I-25S","chain_law":false,"closure":true,"pass_relevant":true,"observed":"2026-07-22T19:59:48.121Z","source":"planned"}},{"type":"Feature","geometry":{"type":"Point","coordinates":[-107.911257,39.500229]},"properties":{"id":"OpenTMS-Event34012033592","title":"Paving Operations-139821","type":"Paving Operations","roads":"I-70E","chain_law":false,"closure":true,"pass_relevant":true,"observed":"2026-07-16T19:17:03.823Z","source":"planned"}},{"type":"Feature","geometry":{"type":"Point","coordinates":[-104.980068,40.33179]},"properties":{"id":"OpenTMS-Event34162428351","title":"CTIO Mobile Lane Closure-140971","type":"Other","roads":"I-25N","chain_law":false,"closure":true,"pass_relevant":false,"observed":"2026-07-24T15:44:50.048Z","source":"planned"}},{"type":"Feature","geometry":{"type":"Point","coordinates":[-107.247504,40.497195]},"properties":{"id":"OpenTMS-Event34064069329","title":"US 40 over Shelton Ditch-138278","type":"Road Construction","roads":"US-40W","chain_law":false,"closure":false,"pass_relevant":false,"observed":"2026-07-19T13:04:45.576Z","source":"planned"}},{"type":"Feature","geometry":{"type":"Point","coordinates":[-108.62087,39.072603]},"properties":{"id":"OpenTMS-Event34161729748","title":"CO 340 Resurfacing -140888","type":"Guardrail","roads":"CO-340E","chain_law":false,"closure":false,"pass_relevant":false,"observed":"2026-07-24T14:53:33.978Z","source":"planned"}},{"type":"Feature","geometry":{"type":"Point","coordinates":[-104.827637,38.903604]},"properties":{"id":"OpenTMS-Event34085377115","title":"I-25 Acceleration/De-Acceleration Lane from Garden of the Gods Road to Fillmore-140386","type":"Road Construction","roads":"I-25S","chain_law":false,"closure":false,"pass_relevant":false,"observed":"2026-07-20T15:55:53.735Z","source":"planned"}},{"type":"Feature","geometry":{"type":"Point","coordinates":[-104.699362,39.740098]},"properties":{"id":"OpenTMS-Event34096647422","title":"I-70 Aerotropolis Interchange-138107","type":"Bridge Construction","roads":"I-70E","chain_law":false,"closure":true,"pass_relevant":true,"observed":"2026-07-21T06:05:18.307Z","source":"planned"}},{"type":"Feature","geometry":{"type":"Point","coordinates":[-105.854351,39.701885]},"properties":{"id":"OpenTMS-Event34161736205","title":"R3 - I-70 Chain Station Technology & Communications Upgrades-140932","type":"Other","roads":"I-70W","chain_law":true,"closure":true,"pass_relevant":true,"observed":"2026-07-24T14:53:40.004Z","source":"planned"}},{"type":"Feature","geometry":{"type":"Point","coordinates":[-104.992239,39.684248]},"properties":{"id":"OpenTMS-Event34039277915","title":"US 85 & West Jewell Ave-129517","type":"Bridge Construction","roads":"US-85S","chain_law":false,"closure":true,"pass_relevant":false,"observed":"2026-07-18T06:02:55.070Z","source":"planned"}},{"type":"Feature","geometry":{"type":"Point","coordinates":[-104.325544,39.026269]},"properties":{"id":"OpenTMS-Event34016566952","title":"New Project: 26310 - US 24 Resurfacing from Peyton to Calhan-140117","type":"Paving Operations","roads":"US-24E","chain_law":false,"closure":false,"pass_relevant":false,"observed":"2026-07-22T23:26:42.398Z","source":"planned"}},{"type":"Feature","geometry":{"type":"Point","coordinates":[-104.833272,38.867223]},"properties":{"id":"OpenTMS-Event34127842169","title":"I-25 Acceleration/De-Aceleration Lanes from Garden of the Gods to Fillmore Street-140609","type":"Road Construction","roads":"I-25N","chain_law":false,"closure":true,"pass_relevant":false,"observed":"2026-07-24T16:09:44.359Z","source":"planned"}},{"type":"Feature","geometry":{"type":"Point","coordinates":[-103.800352,37.797232]},"properties":{"id":"OpenTMS-Event34162836524","title":"US 350 Resurfacing in Otero County-141007","type":"Paving Operations","roads":"US-350E","chain_law":false,"closure":false,"pass_relevant":false,"observed":"2026-07-24T16:14:47.465Z","source":"planned"}},{"type":"Feature","geometry":{"type":"Point","coordinates":[-107.303366,39.561917]},"properties":{"id":"OpenTMS-Event34006971316","title":"I-70 Glenwood Canyon bridge joints-138572","type":"Bridge Construction","roads":"I-70E","chain_law":false,"closure":false,"pass_relevant":true,"observed":"2026-07-16T13:00:58.696Z","source":"planned"}},{"type":"Feature","geometry":{"type":"Point","coordinates":[-105.367538,39.713407]},"properties":{"id":"OpenTMS-Event34161735771","title":"R3 - I-70 Chain Station Technology & Communications Upgrades-140926","type":"Other","roads":"I-70W","chain_law":true,"closure":true,"pass_relevant":true,"observed":"2026-07-24T14:53:37.360Z","source":"planned"}},{"type":"Feature","geometry":{"type":"Point","coordinates":[-105.061385,38.992778]},"properties":{"id":"OpenTMS-Event34105160524","title":"CO 67 Capital project-140443","type":"Paving Operations","roads":"CO-67S","chain_law":false,"closure":false,"pass_relevant":false,"observed":"2026-07-21T16:44:04.274Z","source":"planned"}},{"type":"Feature","geometry":{"type":"Point","coordinates":[-104.952492,39.780222]},"properties":{"id":"OpenTMS-Event34131942165","title":"FLS Sprinkler Testing-139721","type":"Tunnel Maintenance","roads":"(E) - STEELE STREET |  VASQUEZ BLVD ","chain_law":false,"closure":true,"pass_relevant":false,"observed":"2026-07-23T02:03:20.183Z","source":"planned"}},{"type":"Feature","geometry":{"type":"Point","coordinates":[-105.612759,38.26572]},"properties":{"id":"OpenTMS-Event34162292862","title":"CO 69 Resurfacing Hillside to Texas Creek-140955","type":"Paving Operations","roads":"CO-69S","chain_law":false,"closure":false,"pass_relevant":false,"observed":"2026-07-24T15:34:46.908Z","source":"planned"}},{"type":"Feature","geometry":{"type":"Point","coordinates":[-104.939575,38.371691]},"properties":{"id":"OpenTMS-Event34146768427","title":"Paving Operations-140603","type":"Paving Operations","roads":"US-50E","chain_law":false,"closure":true,"pass_relevant":false,"observed":"2026-07-23T20:33:09.383Z","source":"planned"}},{"type":"Feature","geometry":{"type":"Point","coordinates":[-105.946024,39.676831]},"properties":{"id":"OpenTMS-Event34131935610","title":"EJMT Tunnel Inspections-138481","type":"Tunnel Maintenance","roads":"I-70E","chain_law":false,"closure":true,"pass_relevant":true,"observed":"2026-07-23T02:03:09.155Z","source":"planned"}},{"type":"Feature","geometry":{"type":"Point","coordinates":[-107.02208,37.267127]},"properties":{"id":"OpenTMS-Event34054497592","title":"US 160 Pagosa Springs Reconstruction-139089","type":"Road Construction","roads":"US-160W","chain_law":false,"closure":true,"pass_relevant":false,"observed":"2026-07-19T01:03:58.419Z","source":"planned"}},{"type":"Feature","geometry":{"type":"Point","coordinates":[-104.606849,39.361574]},"properties":{"id":"OpenTMS-Event34017273652","title":"25632 - CO 86 Resurfacing in Elizabeth-140133","type":"Paving Operations","roads":"CO-86E","chain_law":false,"closure":true,"pass_relevant":false,"observed":"2026-07-23T03:34:50.104Z","source":"planned"}},{"type":"Feature","geometry":{"type":"Point","coordinates":[-104.967074,39.780128]},"properties":{"id":"OpenTMS-Event34131942108","title":"FLS Sprinkler Testing-139720","type":"Tunnel Maintenance","roads":"I-70W","chain_law":false,"closure":true,"pass_relevant":false,"observed":"2026-07-23T02:03:19.582Z","source":"planned"}},{"type":"Feature","geometry":{"type":"Point","coordinates":[-104.325544,39.026269]},"properties":{"id":"OpenTMS-Event34129855129","title":"New Project: 26310 - US 24 Resurfacing from Peyton to Calhan-140690","type":"Paving Operations","roads":"US-24E","chain_law":false,"closure":false,"pass_relevant":false,"observed":"2026-07-22T23:26:45.005Z","source":"planned"}},{"type":"Feature","geometry":{"type":"Point","coordinates":[-105.367584,39.713234]},"properties":{"id":"OpenTMS-Event34013519833","title":"R2 - I-70 Chain Station Technology & Communications Upgrades-140059","type":"Other","roads":"I-70E","chain_law":true,"closure":true,"pass_relevant":true,"observed":"2026-07-16T21:09:34.112Z","source":"planned"}},{"type":"Feature","geometry":{"type":"Point","coordinates":[-104.827637,38.903604]},"properties":{"id":"OpenTMS-Event34085043170","title":"I-25 Acceleration/De-Acceleration Lane from Garden of the Gods Road to Fillmore-140168","type":"Road Construction","roads":"I-25S","chain_law":false,"closure":true,"pass_relevant":false,"observed":"2026-07-20T15:31:04.560Z","source":"planned"}},{"type":"Feature","geometry":{"type":"Point","coordinates":[-106.305339,39.643549]},"properties":{"id":"OpenTMS-Event34087868208","title":"I-70 West Vail Pass — Lane Closures-140387","type":"Road Construction","roads":"I-70W","chain_law":false,"closure":true,"pass_relevant":true,"observed":"2026-07-20T19:04:07.316Z","source":"planned"}},{"type":"Feature","geometry":{"type":"Point","coordinates":[-106.044535,39.640308]},"properties":{"id":"OpenTMS-Event34121542554","title":"I-70 Straight Creek Culvert Repairs-138549","type":"Culvert Maintenance","roads":"I-70W","chain_law":false,"closure":false,"pass_relevant":true,"observed":"2026-07-22T13:03:34.889Z","source":"planned"}},{"type":"Feature","geometry":{"type":"Point","coordinates":[-105.172376,40.758847]},"properties":{"id":"OpenTMS-Event34083075478","title":"US 287 Intersection Improvements-137541","type":"Road Construction","roads":"US-287N","chain_law":false,"closure":true,"pass_relevant":false,"observed":"2026-07-22T19:29:47.050Z","source":"planned"}},{"type":"Feature","geometry":{"type":"Point","coordinates":[-104.818951,37.608013]},