{"type":"FeatureCollection","features":[{"type":"Feature","geometry":{"type":"Point","coordinates":[-104.988662,39.564258]},"properties":{"id":"6522","name":"C-470 MP 019.55 WB at S Broadway","imageUrl":"https://cocam.carsprogram.org/Snapshots/470W01955CAM1RHS.flv.png","pageUrl":"https://maps.cotrip.org/?lat=39.564258&lon=-104.988662&zoom=12"}},{"type":"Feature","geometry":{"type":"Point","coordinates":[-106.199811,39.507392]},"properties":{"id":"6523","name":"I-70 MP 192.10 WB : 1.8 miles E Vail Pass Summit","imageUrl":"https://cocam.carsprogram.org/Snapshots/070W19210CAM1RHS.flv.png","pageUrl":"https://maps.cotrip.org/?lat=39.507392&lon=-106.199811&zoom=12"}},{"type":"Feature","geometry":{"type":"Point","coordinates":[-105.654845,39.758657]},"properties":{"id":"6524","name":"I-70 MP 231.90 EB at US 40","imageUrl":"https://cocam.carsprogram.org/Snapshots/070E23190CAM1RHS.flv.png","pageUrl":"https://maps.cotrip.org/?lat=39.758657&lon=-105.654845&zoom=12"}},{"type":"Feature","geometry":{"type":"Point","coordinates":[-105.572055,39.759687]},"properties":{"id":"6525","name":"I-70 MP 236.55 EB : 1.1 miles W of Fall River Rd","imageUrl":"https://cocam.carsprogram.org/Snapshots/070E23655CAM1GP2.flv.png","pageUrl":"https://maps.cotrip.org/?lat=39.759687&lon=-105.572055&zoom=12"}},{"type":"Feature","geometry":{"type":"Point","coordinates":[-104.990402,39.913581]},"properties":{"id":"6526","name":"I-25 MP 223.05 NB at 120th Ave/CO 128","imageUrl":"https://cocam.carsprogram.org/Snapshots/025N22305CAM1GP2.flv.png","pageUrl":"https://maps.cotrip.org/?lat=39.913581&lon=-104.990402&zoom=12"}},{"type":"Feature","geometry":{"type":"Point","coordinates":[-104.874053,39.556468]},"properties":{"id":"6527","name":"C-470 MP 025.95 WB : SB I-25 Ramp to WB C-470","imageUrl":"https://cocam.carsprogram.org/Snapshots/470W02595CAM1RP1.flv.png","pageUrl":"https://maps.cotrip.org/?lat=39.556468&lon=-104.874053&zoom=12"}},{"type":"Feature","geometry":{"type":"Point","coordinates":[-104.872093,39.566753]},"properties":{"id":"6528","name":"I-25 MP 195.10 NB at E County Line Rd","imageUrl":"https://cocam.carsprogram.org/Snapshots/025N19510CAM1RHS.flv.png","pageUrl":"https://maps.cotrip.org/?lat=39.566753&lon=-104.872093&zoom=12"}},{"type":"Feature","geometry":{"type":"Point","coordinates":[-104.868179,39.412086]},"properties":{"id":"6529","name":"I-25 MP 184.20 NB at Founders Pkwy/Meadows Pkwy","imageUrl":"https://cocam.carsprogram.org/Snapshots/025N18420CAM1RP1.flv.png","pageUrl":"https://maps.cotrip.org/?lat=39.412086&lon=-104.868179&zoom=12"}},{"type":"Feature","geometry":{"type":"Point","coordinates":[-104.938445,40.911538]},"properties":{"id":"6530","name":"I-25 MP 292.60 SB at WCR 126.5 in Carr","imageUrl":"https://cocam.carsprogram.org/Snapshots/025S29260CAM1RP1.flv.png","pageUrl":"https://maps.cotrip.org/?lat=40.911538&lon=-104.938445&zoom=12"}},{"type":"Feature","geometry":{"type":"Point","coordinates":[-105.240801,39.909969]},"properties":{"id":"6531","name":"CO 93 MP 010.40 SB : 1.7 miles S of CO 128 in Golden","imageUrl":"https://cocam.carsprogram.org/Snapshots/093S01040CAM1RHS.flv.png","pageUrl":"https://maps.cotrip.org/?lat=39.909969&lon=-105.240801&zoom=12"}},{"type":"Feature","geometry":{"type":"Point","coordinates":[-105.754951,39.696431]},"properties":{"id":"6532","name":"I-70 MP 225.50 WB : 0.2 miles W of Woodward St in Silver Plume","imageUrl":"https://cocam.carsprogram.org/Snapshots/070W22550CAM1RHS.flv.png","pageUrl":"https://maps.cotrip.org/?lat=39.696431&lon=-105.754951&zoom=12"}},{"type":"Feature","geometry":{"type":"Point","coordinates":[-104.90508,39.564144]},"properties":{"id":"6533","name":"C-470 MP 024.10 WB at S Quebec St","imageUrl":"https://cocam.carsprogram.org/Snapshots/470W02410CAM1RP1.flv.png","pageUrl":"https://maps.cotrip.org/?lat=39.564144&lon=-104.90508&zoom=12"}},{"type":"Feature","geometry":{"type":"Point","coordinates":[-105.193084,39.706226]},"properties":{"id":"6534","name":"C-470 MP 000.45 EB : 0.5 miles E of I-70","imageUrl":"https://cocam.carsprogram.org/Snapshots/470E00045CAM1RHS.flv.png","pageUrl":"https://maps.cotrip.org/?lat=39.706226&lon=-105.193084&zoom=12"}},{"type":"Feature","geometry":{"type":"Point","coordinates":[-105.201348,39.703011]},"properties":{"id":"6535","name":"I-70 MP 259.10 WB : 0.3 miles E of US 40/CR 93 in Golden","imageUrl":"https://cocam.carsprogram.org/Snapshots/070W25910CAM1MED.flv.png","pageUrl":"https://maps.cotrip.org/?lat=39.703011&lon=-105.201348&zoom=12"}},{"type":"Feature","geometry":{"type":"Point","coordinates":[-104.852386,39.651031]},"properties":{"id":"6536","name":"I-225 MP 003.55 SB : 0.4 miles S of S Parker Rd/CO 83","imageUrl":"https://cocam.carsprogram.org/Snapshots/225S00355CAM1RP2.flv.png","pageUrl":"https://maps.cotrip.org/?lat=39.651031&lon=-104.852386&zoom=12"}},{"type":"Feature","geometry":{"type":"Point","coordinates":[-104.941764,39.560577]},"properties":{"id":"6537","name":"C-470 MP 022.10 EB at S Colorado Blvd","imageUrl":"https://cocam.carsprogram.org/Snapshots/470E02210CAM1RHS.flv.png","pageUrl":"https://maps.cotrip.org/?lat=39.560577&lon=-104.941764&zoom=12"}},{"type":"Feature","geometry":{"type":"Point","coordinates":[-105.117754,39.784422]},"properties":{"id":"6538","name":"I-70 MP 266.95 WB : 0.4 miles W of Kipling St","imageUrl":"https://cocam.carsprogram.org/Snapshots/070W26695CAM1MED.flv.png","pageUrl":"https://maps.cotrip.org/?lat=39.784422&lon=-105.117754&zoom=12"}},{"type":"Feature","geometry":{"type":"Point","coordinates":[-105.226196,39.599014]},"properties":{"id":"6539","name":"US 285 MP 244.65 NB : 0.6 miles N of N Turkey Creek Rd","imageUrl":"https://cocam.carsprogram.org/Snapshots/285N24465CAM1RHS.flv.png","pageUrl":"https://maps.cotrip.org/?lat=39.599014&lon=-105.226196&zoom=12"}},{"type":"Feature","geometry":{"type":"Point","coordinates":[-105.40998,39.720908]},"properties":{"id":"6540","name":"I-70 MP 246.60 EB at Homestead Rd W ","imageUrl":"https://cocam.carsprogram.org/Snapshots/070E24660CAM1RP1.flv.png","pageUrl":"https://maps.cotrip.org/?lat=39.720908&lon=-105.40998&zoom=12"}},{"type":"Feature","geometry":{"type":"Point","coordinates":[-105.624022,39.766656]},"properties":{"id":"6541","name":"I-70 MP 233.65 WB : 0.7 miles W of Mountain St in Dumont","imageUrl":"https://cocam.carsprogram.org/Snapshots/070W23365CAM1RHS.flv.png","pageUrl":"https://maps.cotrip.org/?lat=39.766656&lon=-105.624022&zoom=12"}},{"type":"Feature","geometry":{"type":"Point","coordinates":[-104.342517,39.73464]},"properties":{"id":"6542","name":"I-70 MP 309.30 WB : 0.9 miles W of Wagner St in Strasburg","imageUrl":"https://cocam.carsprogram.org/Snapshots/070W30930CAM1GP2.flv.png","pageUrl":"https://maps.cotrip.org/?lat=39.73464&lon=-104.342517&zoom=12"}},{"type":"Feature","geometry":{"type":"Point","coordinates":[-104.976608,39.691307]},"properties":{"id":"6543","name":"I-25 MP 206.00 SB : 0.2 miles N of S Downing St","imageUrl":"https://cocam.carsprogram.org/Snapshots/025S20600CAM1RHS.flv.png","pageUrl":"https://maps.cotrip.org/?lat=39.691307&lon=-104.976608&zoom=12"}},{"type":"Feature","geometry":{"type":"Point","coordinates":[-105.229461,39.606568]},"properties":{"id":"6544","name":"US 285 MP 245.15 NB at Twin Forks","imageUrl":"https://cocam.carsprogram.org/Snapshots/285N24515CAM1RHS.flv.png","pageUrl":"https://maps.cotrip.org/?lat=39.606568&lon=-105.229461&zoom=12"}},{"type":"Feature","geometry":{"type":"Point","coordinates":[-105.554016,39.75221]},"properties":{"id":"6545","name":"I-70 MP 237.65 EB at Fall River Rd","imageUrl":"https://cocam.carsprogram.org/Snapshots/070E23765CAM1RP1.flv.png","pageUrl":"https://maps.cotrip.org/?lat=39.75221&lon=-105.554016&zoom=12"}},{"type":"Feature","geometry":{"type":"Point","coordinates":[-104.829171,38.898251]},"properties":{"id":"6546","name":"I-25 MP 146.20 NB at Garden of the Gods Rd","imageUrl":"https://cocam.carsprogram.org/Snapshots/025N14620CAM1RHS.flv.png","pageUrl":"https://maps.cotrip.org/?lat=38.898251&lon=-104.829171&zoom=12"}},{"type":"Feature","geometry":{"type":"Point","coordinates":[-104.877495,39.643528]},"properties":{"id":"6547","name":"I-225 MP 002.30 SB : 1.2 miles N of S Yosemite St","imageUrl":"https://cocam.carsprogram.org/Snapshots/225S00230CAM1RHS.flv.png","pageUrl":"https://maps.cotrip.org/?lat=39.643528&lon=-104.877495&zoom=12"}},{"type":"Feature","geometry":{"type":"Point","coordinates":[-105.270736,39.739631]},"properties":{"id":"6548","name":"US 6 MP 269.10 EB : 1.3 miles W of Tunnel 1","imageUrl":"https://cocam.carsprogram.org/Snapshots/006E26910CAM1RHS.flv.png","pageUrl":"https://maps.cotrip.org/?lat=39.739631&lon=-105.270736&zoom=12"}},{"type":"Feature","geometry":{"type":"Point","coordinates":[-104.842117,39.658729]},"properties":{"id":"6549","name":"I-225 MP 004.00 NB at S Parker Rd/CO 83","imageUrl":"https://cocam.carsprogram.org/Snapshots/225N00400CAM1RHS.flv.png","pageUrl":"https://maps.cotrip.org/?lat=39.658729&lon=-104.842117&zoom=12"}},{"type":"Feature","geometry":{"type":"Point","coordinates":[-105.0172,39.751434]},"properties":{"id":"6550","name":"I-25 MP 211.10 SB at W 23rd Ave","imageUrl":"https://cocam.carsprogram.org/Snapshots/025S21110CAM1RP1.flv.png","pageUrl":"https://maps.cotrip.org/?lat=39.751434&lon=-105.0172&zoom=12"}},{"type":"Feature","geometry":{"type":"Point","coordinates":[-105.805325,39.692197]},"properties":{"id":"6551","name":"I-70 MP 221.30 EB at Stevens Gulch Rd in Bakerville","imageUrl":"https://cocam.carsprogram.org/Snapshots/070E22130CAM1RP1.flv.png","pageUrl":"https://maps.cotrip.org/?lat=39.692197&lon=-105.805325&zoom=12"}},{"type":"Feature","geometry":{"type":"Point","coordinates":[-104.99768,39.755422]},"properties":{"id":"6552","name":"I-25 MP 212.05 NB at 19th St and Wynkoop St","imageUrl":"https://cocam.carsprogram.org/Snapshots/025N21205CAM1RHS.flv.png","pageUrl":"https://maps.cotrip.org/?lat=39.755422&lon=-104.99768&zoom=12"}},{"type":"Feature","geometry":{"type":"Point","coordinates":[-104.647392,38.551185]},"properties":{"id":"6553","name":"I-25 MP 118.75 SB : 0.1 miles S of Rancho Colorado Blvd","imageUrl":"https://cocam.carsprogram.org/Snapshots/025S11875CAM1RHS.flv.png","pageUrl":"https://maps.cotrip.org/?lat=38.551185&lon=-104.647392&zoom=12"}},{"type":"Feature","geometry":{"type":"Point","coordinates":[-105.995979,39.656637]},"properties":{"id":"6554","name":"I-70 MP 209.85 WB : 3.8 miles W of Eisenhower Tunnel","imageUrl":"https://cocam.carsprogram.org/Snapshots/070W20985CAM1RHS.flv.png","pageUrl":"https://maps.cotrip.org/?lat=39.656637&lon=-105.995979&zoom=12"}},{"type":"Feature","geometry":{"type":"Point","coordinates":[-105.024783,38.427333]},"properties":{"id":"6555","name":"CO 115 MP 015.10 NB : 1.3 miles N of US 50 in Penrose","imageUrl":"https://cocam.carsprogram.org/Snapshots/115N01510CAM1RHS.flv.png","pageUrl":"https://maps.cotrip.org/?lat=38.427333&lon=-105.024783&zoom=12"}},{"type":"Feature","geometry":{"type":"Point","coordinates":[-104.826538,39.709621]},"properties":{"id":"6556","name":"I-225 MP 007.80 NB : 0.1 miles S of E Alameda Ave","imageUrl":"https://cocam.carsprogram.org/Snapshots/225N00780CAM1GP2.flv.png","pageUrl":"https://maps.cotrip.org/?lat=39.709621&lon=-104.826538&zoom=12"}},{"type":"Feature","geometry":{"type":"Point","coordinates":[-107.334128,39.553924]},"properties":{"id":"6557","name":"I-70 MP 115.95 EB : 0.8 miles W of CO 82 in Glenwood Springs","imageUrl":"https://cocam.carsprogram.org/Snapshots/070E11595CAM1GP2.flv.png","pageUrl":"https://maps.cotrip.org/?lat=39.553924&lon=-107.334128&zoom=12"}},{"type":"Feature","geometry":{"type":"Point","coordinates":[-104.902,39.623336]},"properties":{"id":"6558","name":"I-25 MP 199.45 SB at E Belleview Ave","imageUrl":"https://cocam.carsprogram.org/Snapshots/025S19945CAM1RHS.flv.png","pageUrl":"https://maps.cotrip.org/?lat=39.623336&lon=-104.902&zoom=12"}},{"type":"Feature","geometry":{"type":"Point","coordinates":[-105.676037,39.746416]},"properties":{"id":"6559","name":"I-70 MP 230.45 EB : 1.4 miles W of US 40","imageUrl":"https://cocam.carsprogram.org/Snapshots/070E23045CAM1MED.flv.png","pageUrl":"https://maps.cotrip.org/?lat=39.746416&lon=-105.676037&zoom=12"}},{"type":"Feature","geometry":{"type":"Point","coordinates":[-105.347862,39.708961]},"properties":{"id":"6560","name":"I-70 MP 250.15 WB : 0.8 miles W of El Rancho in Evergreen","imageUrl":"https://cocam.carsprogram.org/Snapshots/070W25015CAM1GP2.flv.png","pageUrl":"https://maps.cotrip.org/?lat=39.708961&lon=-105.347862&zoom=12"}},{"type":"Feature","geometry":{"type":"Point","coordinates":[-105.015015,39.72496]},"properties":{"id":"6561","name":"US 6 MP 284.40 EB : SB I-25 Ramp to WB 6th Ave","imageUrl":"https://cocam.carsprogram.org/Snapshots/006E28440CAM1RP1.flv.png","pageUrl":"https://maps.cotrip.org/?lat=39.72496&lon=-105.015015&zoom=12"}},{"type":"Feature","geometry":{"type":"Point","coordinates":[-105.060182,39.566577]},"properties":{"id":"6562","name":"C-470 MP 015.55 WB : 0.1 miles E of S Platte Canyon Rd/CO 75","imageUrl":"https://cocam.carsprogram.org/Snapshots/470W01555CAM1RHS.flv.png","pageUrl":"https://maps.cotrip.org/?lat=39.566577&lon=-105.060182&zoom=12"}},{"type":"Feature","geometry":{"type":"Point","coordinates":[-105.287074,39.708951]},"properties":{"id":"6563","name":"I-70 MP 253.95 EB : 0.4 miles E of Genesee Park","imageUrl":"https://cocam.carsprogram.org/Snapshots/070E25395CAM1RHS.flv.png","pageUrl":"https://maps.cotrip.org/?lat=39.708951&lon=-105.287074&zoom=12"}},{"type":"Feature","geometry":{"type":"Point","coordinates":[-104.996687,39.559572]},"properties":{"id":"6565","name":"C-470 MP 019.00 EB : 0.6 miles E of Lucent Blvd","imageUrl":"https://cocam.carsprogram.org/Snapshots/470E01900CAM1RHS.flv.png","pageUrl":"https://maps.cotrip.org/?lat=39.559572&lon=-104.996687&zoom=12"}},{"type":"Feature","geometry":{"type":"Point","coordinates":[-104.825233,39.748512]},"properties":{"id":"6566","name":"I-225 MP 010.50 NB : 0.7 miles N of E Colfax Ave","imageUrl":"https://cocam.carsprogram.org/Snapshots/225N01050CAM1RP1.flv.png","pageUrl":"https://maps.cotrip.org/?lat=39.748512&lon=-104.825233&zoom=12"}},{"type":"Feature","geometry":{"type":"Point","coordinates":[-106.955082,39.65169]},"properties":{"id":"6567","name":"I-70 MP 139.55 EB at Trail Gulch Rd in Gypsum","imageUrl":"https://cocam.carsprogram.org/Snapshots/070E13955CAM1RP1.flv.png","pageUrl":"https://maps.cotrip.org/?lat=39.65169&lon=-106.955082&zoom=12"}},{"type":"Feature","geometry":{"type":"Point","coordinates":[-106.008858,39.653587]},"properties":{"id":"6568","name":"I-70 MP 208.90 WB : 3.3 miles E of US 6/CO 9 2 in Silverthorne","imageUrl":"https://cocam.carsprogram.org/Snapshots/070W20890CAM1RHS-2.flv.png","pageUrl":"https://maps.cotrip.org/?lat=39.653587&lon=-106.008858&zoom=12"}},{"type":"Feature","geometry":{"type":"Point","coordinates":[-107.223701,39.57357]},"properties":{"id":"6569","name":"I-70 MP 123.15 EB : 2.2 miles E of Grizzly Creek","imageUrl":"https://cocam.carsprogram.org/Snapshots/070E12315CAM1MED.flv.png","pageUrl":"https://maps.cotrip.org/?lat=39.57357&lon=-107.223701&zoom=12"}},{"type":"Feature","geometry":{"type":"Point","coordinates":[-104.980369,40.116519]},"properties":{"id":"6570","name":"I-25 MP 237.10 SB : 2.6 miles N of CO 52","imageUrl":"https://cocam.carsprogram.org/Snapshots/025S23710CAM1GP3.flv.png","pageUrl":"https://maps.cotrip.org/?lat=40.116519&lon=-104.980369&zoom=12"}},{"type":"Feature","geometry":{"type":"Point","coordinates":[-105.965888,39.674049]},"properties":{"id":"6571","name":"I-70 MP 211.80 WB : 1.7 miles W of Eisenhower Tunnel","imageUrl":"https://cocam.carsprogram.org/Snapshots/070W21180CAM1RHS.flv.png","pageUrl":"https://maps.cotrip.org/?lat=39.674049&lon=-105.965888&zoom=12"}},{"type":"Feature","geometry":{"type":"Point","coordinates":[-104.818861,38.720006]},"properties":{"id":"6572","name":"CO 115 MP 040.35 SB at Pine Oaks Rd in Fort Carson","imageUrl":"https://cocam.carsprogram.org/Snapshots/115S04035CAM1NWC.flv.png","pageUrl":"https://maps.cotrip.org/?lat=38.720006&lon=-104.818861&zoom=12"}},{"type":"Feature","geometry":{"type":"Point","coordinates":[-104.982737,39.82688]},"properties":{"id":"6573","name":"I-25 MP 216.95 SB at I-25 HOV N Lane Split","imageUrl":null,"pageUrl":"https://maps.cotrip.org/?lat=39.82688&lon=-104.982737&zoom=12"}},{"type":"Feature","geometry":{"type":"Point","coordinates":[-104.894127,39.6357]},"properties":{"id":"6574","name":"I-225 MP 000.80 SB at DTC Blvd","imageUrl":"https://cocam.carsprogram.org/Snapshots/225S00080CAM1RHS.flv.png","pageUrl":"https://maps.cotrip.org/?lat=39.6357&lon=-104.894127&zoom=12"}},{"type":"Feature","geometry":{"type":"Point","coordinates":[-104.981025,40.044231]},"properties":{"id":"6575","name":"I-25 MP 232.10 SB at Erie Pkwy/Summit Blvd","imageUrl":"https://cocam.carsprogram.org/Snapshots/025S23210CAM1RHS.flv.png","pageUrl":"https://maps.cotrip.org/?lat=40.044231&lon=-104.981025&zoom=12"}},{"type":"Feature","geometry":{"type":"Point","coordinates":[-104.838743,39.661157]},"properties":{"id":"6576","name":"I-225 MP 004.25 SB : 0.3 miles N of S Parker Rd/CO 83","imageUrl":"https://cocam.carsprogram.org/Snapshots/225S00425CAM1RHS.flv.png","pageUrl":"https://maps.cotrip.org/?lat=39.661157&lon=-104.838743&zoom=12"}},{"type":"Feature","geometry":{"type":"Point","coordinates":[-102.252209,39.302728]},"properties":{"id":"6578","name":"I-70 MP 438.45 EB : 0.2 miles E of Rose Ave in Burlington","imageUrl":"https://cocam.carsprogram.org/Snapshots/070E43845CAM1RP1.flv.png","pageUrl":"https://maps.cotrip.org/?lat=39.302728&lon=-102.252209&zoom=12"}},{"type":"Feature","geometry":{"type":"Point","coordinates":[-104.979583,40.291309]},"properties":{"id":"6579","name":"I-25 MP 249.20 NB : 1.0 mile S of CO 56 on Frontage Rd","imageUrl":"https://cocam.carsprogram.org/Snapshots/025N24920CAM1RHS.flv.png","pageUrl":"https://maps.cotrip.org/?lat=40.291309&lon=-104.979583&zoom=12"}},{"type":"Feature","geometry":{"type":"Point","coordinates":[-104.866882,39.363956]},"properties":{"id":"6580","name":"I-25 MP 180.70 SB : 0.2 miles S of Plum Creek Pkwy","imageUrl":"https://cocam.carsprogram.org/Snapshots/025S18070CAM1RP1.flv.png","pageUrl":"https://maps.cotrip.org/?lat=39.363956&lon=-104.866882&zoom=12"}},{"type":"Feature","geometry":{"type":"Point","coordinates":[-105.724618,39.695606]},"properties":{"id":"6581","name":"I-70 MP 225.80 WB : 0.1 miles E of Woodward St in Silver Plume","imageUrl":"https://cocam.carsprogram.org/Snapshots/070W22580CAM1RHS.flv.png","pageUrl":"https://maps.cotrip.org/?lat=39.695606&lon=-105.724618&zoom=12"}},{"type":"Feature","geometry":{"type":"Point","coordinates":[-106.684299,39.700906]},"properties":{"id":"6582","name":"I-70 MP 155.80 WB : 0.9 miles W of CO 131","imageUrl":"https://cocam.carsprogram.org/Snapshots/070W15580CAM1RHS.flv.png","pageUrl":"https://maps.cotrip.org/?lat=39.700906&lon=-106.684299&zoom=12"}},{"type":"Feature","geometry":{"type":"Point","coordinates":[-106.45896,39.612604]},"properties":{"id":"6583","name":"I-70 MP 170.45 WB : 0.8 miles W of Dowd Junction","imageUrl":"https://cocam.carsprogram.org/Snapshots/070W17045CAM1RHS.flv.png","pageUrl":"https://maps.cotrip.org/?lat=39.612604&lon=-106.45896&zoom=12"}},{"type":"Feature","geometry":{"type":"Point","coordinates":[-106.664246,39.692283]},"properties":{"id":"6584","name":"I-70 MP 157.10 WB : 0.7 miles E of CO 131","imageUrl":"https://cocam.carsprogram.org/Snapshots/070W15710CAM1GP2.flv.png","pageUrl":"https://maps.cotrip.org/?lat=39.692283&lon=-106.664246&zoom=12"}},{"type":"Feature","geometry":{"type":"Point","coordinates":[-104.885107,39.639715]},"properties":{"id":"6585","name":"I-225 MP 001.40 NB at S Yosemite St and NB I-225 Ramps","imageUrl":"https://cocam.carsprogram.org/Snapshots/225N00140CAM1RP1.flv.png","pageUrl":"https://maps.cotrip.org/?lat=39.639715&lon=-104.885107&zoom=12"}},{"type":"Feature","geometry":{"type":"Point","coordinates":[-104.671744,40.044536]},"properties":{"id":"6586","name":"I-76 MP 028.95 WB at CR 8","imageUrl":"https://cocam.carsprogram.org/Snapshots/076W02895CAM1RP1.flv.png","pageUrl":"https://maps.cotrip.org/?lat=40.044536&lon=-104.671744&zoom=12"}},{"type":"Feature","geometry":{"type":"Point","coordinates":[-105.053959,39.796389]},"properties":{"id":"6587","name":"I-76 MP 001.75 WB at Sheridan Blvd/CO 95","imageUrl":"https://cocam.carsprogram.org/Snapshots/076W00175CAM1RHS.flv.png","pageUrl":"https://maps.cotrip.org/?lat=39.796389&lon=-105.053959&zoom=12"}},{"type":"Feature","geometry":{"type":"Point","coordinates":[-104.980567,40.189975]},"properties":{"id":"6588","name":"I-25 MP 242.15 SB : 1.3 miles S of CO 66","imageUrl":"https://cocam.carsprogram.org/Snapshots/025S24215CAM1RHS.flv.png","pageUrl":"https://maps.cotrip.org/?lat=40.189975&lon=-104.980567&zoom=12"}},{"type":"Feature","geometry":{"type":"Point","coordinates":[-104.933456,39.799934]},"properties":{"id":"6589","name":"I-270 MP 002.40 EB at Vasquez Blvd","imageUrl":"https://cocam.carsprogram.org/Snapshots/270E00240CAM1RP1.flv.png","pageUrl":"https://maps.cotrip.org/?lat=39.799934&lon=-104.933456&zoom=12"}},{"type":"Feature","geometry":{"type":"Point","coordinates":[-107.065941,39.647786]},"properties":{"id":"6590","name":"I-70 MP 133.35 WB at Colorado River Rd","imageUrl":"https://cocam.carsprogram.org/Snapshots/070W13335CAM1RHS.flv.png","pageUrl":"https://maps.cotrip.org/?lat=39.647786&lon=-107.065941&zoom=12"}},{"type":"Feature","geometry":{"type":"Point","coordinates":[-104.988359,39.958037]},"properties":{"id":"6591","name":"I-25 MP 226.10 SB at W 144th Ave","imageUrl":"https://cocam.carsprogram.org/Snapshots/025S22610CAM1RHS.flv.png","pageUrl":"https://maps.cotrip.org/?lat=39.958037&lon=-104.988359&zoom=12"}},{"type":"Feature","geometry":{"type":"Point","coordinates":[-106.8406,39.653981]},"properties":{"id":"6592","name":"I-70 MP 145.80 EB : 1.0 mile W of Eby Creek Rd","imageUrl":"https://cocam.carsprogram.org/Snapshots/070E14580CAM1GP2.flv.png","pageUrl":"https://maps.cotrip.org/?lat=39.653981&lon=-106.8406&zoom=12"}},{"type":"Feature","geometry":{"type":"Point","coordinates":[-105.013809,38.939868]},"properties":{"id":"6593","name":"US 24 MP 289.70 EB : 0.2 miles E of Green Mountain Falls Rd","imageUrl":"https://cocam.carsprogram.org/Snapshots/024E28970CAM1RHS.flv.png","pageUrl":"https://maps.cotrip.org/?lat=38.939868&lon=-105.013809&zoom=12"}},{"type":"Feature","geometry":{"type":"Point","coordinates":[-105.190879,39.695785]},"properties":{"id":"6594","name":"C-470 MP 001.20 EB : 0.6 miles W of W Alameda Pkwy","imageUrl":"https://cocam.carsprogram.org/Snapshots/470E00120CAM1GP3.flv.png","pageUrl":"https://maps.cotrip.org/?lat=39.695785&lon=-105.190879&zoom=12"}},{"type":"Feature","geometry":{"type":"Point","coordinates":[-105.084434,39.553997]},"properties":{"id":"6595","name":"C-470 MP 013.95 EB at S Wadsworth Blvd/CO 121","imageUrl":"https://cocam.carsprogram.org/Snapshots/470E01395CAM1RHS.flv.png","pageUrl":"https://maps.cotrip.org/?lat=39.553997&lon=-105.084434&zoom=12"}},{"type":"Feature","geometry":{"type":"Point","coordinates":[-104.987998,39.884872]},"properties":{"id":"6596","name":"I-25 MP 221.00 SB at E 104th Ave","imageUrl":"https://cocam.carsprogram.org/Snapshots/025S22100CAM1RP1.flv.png","pageUrl":"https://maps.cotrip.org/?lat=39.884872&lon=-104.987998&zoom=12"}},{"type":"Feature","geometry":{"type":"Point","coordinates":[-107.103613,39.62931]},"properties":{"id":"6597","name":"I-70 MP 130.95 WB : 3.0 miles W of Colorado River Rd in Dotsero","imageUrl":"https://cocam.carsprogram.org/Snapshots/070W13095CAM1RHS.flv.png","pageUrl":"https://maps.cotrip.org/?lat=39.62931&lon=-107.103613&zoom=12"}},{"type":"Feature","geometry":{"type":"Point","coordinates":[-107.330636,39.550968]},"properties":{"id":"6599","name":"I-70 MP 116.20 EB : 0.4 miles W of CO 82 in Glenwood Springs","imageUrl":"https://cocam.carsprogram.org/Snapshots/070E11620CAM1RHS.flv.png","pageUrl":"https://maps.cotrip.org/?lat=39.550968&lon=-107.330636&zoom=12"}},{"type":"Feature","geometry":{"type":"Point","coordinates":[-106.094435,39.585831]},"properties":{"id":"6600","name":"CO 9 MP 096.65 SB at Hawn Dr in Frisco","imageUrl":"https://cocam.carsprogram.org/Snapshots/009S09665CAM1SWC.flv.png","pageUrl":"https://maps.cotrip.org/?lat=39.585831&lon=-106.094435&zoom=12"}},{"type":"Feature","geometry":{"type":"Point","coordinates":[-105.695436,39.724331]},"properties":{"id":"6601","name":"I-70 MP 228.50 WB at Georgetown Truck Parking W","imageUrl":"https://cocam.carsprogram.org/Snapshots/070W22850CAM1RP1.flv.png","pageUrl":"https://maps.cotrip.org/?lat=39.724331&lon=-105.695436&zoom=12"}},{"type":"Feature","geometry":{"type":"Point","coordinates":[-104.038199,39.610246]},"properties":{"id":"6602","name":"I-70 MP 328.65 EB : 0.3 miles E of Cedar St Deer Trail","imageUrl":"https://cocam.carsprogram.org/Snapshots/070E32865CAM1RHS.flv.png","pageUrl":"https://maps.cotrip.org/?lat=39.610246&lon=-104.038199&zoom=12"}},{"type":"Feature","geometry":{"type":"Point","coordinates":[-105.821095,39.693591]},"properties":{"id":"6603","name":"I-70 MP 220.45 WB : 0.9 miles W of Stevens Gulch Rd in Bakerville","imageUrl":"https://cocam.carsprogram.org/Snapshots/070W22045CAM1RHS.flv.png","pageUrl":"https://maps.cotrip.org/?lat=39.693591&lon=-105.821095&zoom=12"}},{"type":"Feature","geometry":{"type":"Point","coordinates":[-104.893096,39.564514]},"properties":{"id":"6604","name":"C-470 MP 024.65 WB : 0.6 miles E of S Quebec St","imageUrl":"https://cocam.carsprogram.org/Snapshots/470W02465CAM1RHS.flv.png","pageUrl":"https://maps.cotrip.org/?lat=39.564514&lon=-104.893096&zoom=12"}},{"type":"Feature","geometry":{"type":"Point","coordinates":[-104.966331,40.841587]},"properties":{"id":"6605","name":"I-25 MP 287.55 SB at Buckeye Rd/CR 82","imageUrl":"https://cocam.carsprogram.org/Snapshots/025S28755CAM1RHS.flv.png","pageUrl":"https://maps.cotrip.org/?lat=40.841587&lon=-104.966331&zoom=12"}},{"type":"Feature","geometry":{"type":"Point","coordinates":[-105.398521,39.745891]},"properties":{"id":"6606","name":"US 6 MP 260.30 WB at CO 119","imageUrl":"https://cocam.carsprogram.org/Snapshots/006W26030CAM1RHS.flv.png","pageUrl":"https://maps.cotrip.org/?lat=39.745891&lon=-105.398521&zoom=12"}},{"type":"Feature","geometry":{"type":"Point","coordinates":[-104.688995,38.619705]},"properties":{"id":"6607","name":"I-25 MP 124.00 SB : 0.6 miles S of Ray Nixon Rd","imageUrl":"https://cocam.carsprogram.org/Snapshots/025S12400CAM1RHS.flv.png","pageUrl":"https://maps.cotrip.org/?lat=38.619705&lon=-104.688995&zoom=12"}},{"type":"Feature","geometry":{"type":"Point","coordinates":[-105.083827,39.78582]},"properties":{"id":"6608","name":"I-70 MP 268.95 WB at Wadsworth Blvd","imageUrl":"https://cocam.carsprogram.org/Snapshots/070W26895CAM1RHS.flv.png","pageUrl":"https://maps.cotrip.org/?lat=39.78582&lon=-105.083827&zoom=12"}},{"type":"Feature","geometry":{"type":"Point","coordinates":[-104.992088,40.436363]},"properties":{"id":"6609","name":"I-25 MP 259.35 SB at Crossroads Blvd","imageUrl":"https://cocam.carsprogram.org/Snapshots/025S25935CAM1RHS.flv.png","pageUrl":"https://maps.cotrip.org/?lat=40.436363&lon=-104.992088&zoom=12"}},{"type":"Feature","geometry":{"type":"Point","coordinates":[-104.871887,39.349586]},"properties":{"id":"6610","name":"I-25 MP 179.70 NB : 1.2 miles S of Plum Creek Pkwy","imageUrl":"https://cocam.carsprogram.org/Snapshots/025N17970CAM1GP2.flv.png","pageUrl":"https://maps.cotrip.org/?lat=39.349586&lon=-104.871887&zoom=12"}},{"type":"Feature","geometry":{"type":"Point","coordinates":[-104.82711,39.71854]},"properties":{"id":"6611","name":"I-225 MP 008.45 SB : 0.7 miles N of E Alameda Ave","imageUrl":"https://cocam.carsprogram.org/Snapshots/225S00845CAM1RHS.flv.png","pageUrl":"https://maps.cotrip.org/?lat=39.71854&lon=-104.82711&zoom=12"}},{"type":"Feature","geometry":{"type":"Point","coordinates":[-104.958992,39.818286]},"properties":{"id":"6612","name":"I-270 MP 000.50 EB at York St","imageUrl":"https://cocam.carsprogram.org/Snapshots/270E00050CAM1RP1.flv.png","pageUrl":"https://maps.cotrip.org/?lat=39.818286&lon=-104.958992&zoom=12"}},{"type":"Feature","geometry":{"type":"Point","coordinates":[-104.56578,40.110233]},"properties":{"id":"6613","name":"I-76 MP 036.50 EB at CR 53 in Keenesburg","imageUrl":"https://cocam.carsprogram.org/Snapshots/076E03650CAM1RHS.flv.png","pageUrl":"https://maps.cotrip.org/?lat=40.110233&lon=-104.56578&zoom=12"}},{"type":"Feature","geometry":{"type":"Point","coordinates":[-105.290878,39.744102]},"properties":{"id":"6614","name":"US 6 MP 267.75 WB : 2.3 miles E of Tunnel 2","imageUrl":"https://cocam.carsprogram.org/Snapshots/006W26775CAM1RHS.flv.png","pageUrl":"https://maps.cotrip.org/?lat=39.744102&lon=-105.290878&zoom=12"}},{"type":"Feature","geometry":{"type":"Point","coordinates":[-106.06273,39.630747]},"properties":{"id":"6615","name":"I-70 MP 205.75 WB : 0.3 miles E of US 6/CO 9 in Silverthorne","imageUrl":"https://cocam.carsprogram.org/Snapshots/070W20575CAM1RHS.flv.png","pageUrl":"https://maps.cotrip.org/?lat=39.630747&lon=-106.06273&zoom=12"}},{"type":"Feature","geometry":{"type":"Point","coordinates":[-104.980819,40.088058]},"properties":{"id":"6616","name":"I-25 MP 235.15 SB at CO 52","imageUrl":"https://cocam.carsprogram.org/Snapshots/025S23515CAM1RHS.flv.png","pageUrl":"https://maps.cotrip.org/?lat=40.088058&lon=-104.980819&zoom=12"}},{"type":"Feature","geometry":{"type":"Point","coordinates":[-105.382911,39.737548]},"properties":{"id":"6617","name":"US 6 MP 261.50 EB : 1.3 miles E of CO 119","imageUrl":"https://cocam.carsprogram.org/Snapshots/006E26150CAM1RHS.flv.png","pageUrl":"https://maps.cotrip.org/?lat=39.737548&lon=-105.382911&zoom=12"}},{"type":"Feature","geometry":{"type":"Point","coordinates":[-105.352951,39.740543]},"properties":{"id":"6618","name":"US 6 MP 262.95 EB : 1.3 miles W of Tunnel 3","imageUrl":"https://cocam.carsprogram.org/Snapshots/006E26295CAM1RHS.flv.png","pageUrl":"https://maps.cotrip.org/?lat=39.740543&lon=-105.352951&zoom=12"}},{"type":"Feature","geometry":{"type":"Point","coordinates":[-105.663151,39.75177]},"properties":{"id":"6619","name":"I-70 MP 231.25 WB : 0.6 miles W of US 40","imageUrl":"https://cocam.carsprogram.org/Snapshots/070W23125CAM1RHS.flv.png","pageUrl":"https://maps.cotrip.org/?lat=39.75177&lon=-105.663151&zoom=12"}},{"type":"Feature","geometry":{"type":"Point","coordinates":[-104.606445,38.452251]},"properties":{"id":"6620","name":"I-25 MP 111.50 SB at Pueblo South Rest Area","imageUrl":null,"pageUrl":"https://maps.cotrip.org/?lat=38.452251&lon=-104.606445&zoom=12"}},{"type":"Feature","geometry":{"type":"Point","coordinates":[-106.707252,39.710929]},"properties":{"id":"6621","name":"I-70 MP 154.20 EB : 2.8 miles W of CO 131","imageUrl":"https://cocam.carsprogram.org/Snapshots/070E15420CAM1GP2.flv.png","pageUrl":"https://maps.cotrip.org/?lat=39.710929&lon=-106.707252&zoom=12"}},{"type":"Feature","geometry":{"type":"Point","coordinates":[-106.237394,39.565936]},"properties":{"id":"6622","name":"I-70 MP 187.25 WB : 2.6 miles W of Vail Pass Summit","imageUrl":"https://cocam.carsprogram.org/Snapshots/070W18725CAM1RHS.flv.png","pageUrl":"https://maps.cotrip.org/?lat=39.565936&lon=-106.237394&zoom=12"}},{"type":"Feature","geometry":{"type":"Point","coordinates":[-104.981134,39.823866]},"properties":{"id":"6623","name":"CO 224 MP 000.60 WB at I-25","imageUrl":"https://cocam.carsprogram.org/Snapshots/224W00060CAM1RHS.flv.png","pageUrl":"https://maps.cotrip.org/?lat=39.823866&lon=-104.981134&zoom=12"}},{"type":"Feature","geometry":{"type":"Point","coordinates":[-104.93705,39.682008]},"properties":{"id":"6624","name":"I-25 MP 203.85 NB : 0.2 miles S of Colorado Blvd/CO 2","imageUrl":"https://cocam.carsprogram.org/Snapshots/025N20385CAM1RP2.flv.png","pageUrl":"https://maps.cotrip.org/?lat=39.682008&lon=-104.93705&zoom=12"}},{"type":"Feature","geometry":{"type":"Point","coordinates":[-104.988375,39.779607]},"properties":{"id":"6625","name":"I-25 MP 213.65 NB : NB I-25 Ramp to WB I-70","imageUrl":"https://cocam.carsprogram.org/Snapshots/025N21365CAM1RP1.flv.png","pageUrl":"https://maps.cotrip.org/?lat=39.779607&lon=-104.988375&zoom=12"}},{"type":"Feature","geometry":{"type":"Point","coordinates":[-104.615325,38.313805]},"properties":{"id":"6626","name":"I-25 MP 101.85 SB : 0.4 miles N of US 50/CO 47 in Pueblo","imageUrl":"https://cocam.carsprogram.org/Snapshots/025S10185CAM1RHS.flv.png","pageUrl":"https://maps.cotrip.org/?lat=38.313805&lon=-104.615325&zoom=12"}},{"type":"Feature","geometry":{"type":"Point","coordinates":[-104.925735,39.66711]},"properties":{"id":"6627","name":"I-25 MP 202.70 NB at E Yale Ave","imageUrl":"https://cocam.carsprogram.org/Snapshots/025N20270CAM1RHS.flv.png","pageUrl":"https://maps.cotrip.org/?lat=39.66711&lon=-104.925735&zoom=12"}},{"type":"Feature","geometry":{"type":"Point","coordinates":[-105.548232,39.749195]},"properties":{"id":"6628","name":"I-70 MP 238.05 EB : 0.3 miles E of Fall River Rd","imageUrl":"https://cocam.carsprogram.org/Snapshots/070E23805CAM1MED.flv.png","pageUrl":"https://maps.cotrip.org/?lat=39.749195&lon=-105.548232&zoom=12"}},{"type":"Feature","geometry":{"type":"Point","coordinates":[-104.979293,40.161117]},"properties":{"id":"6629","name":"I-25 MP 240.15 SB at CO 119","imageUrl":"https://cocam.carsprogram.org/Snapshots/025S24015CAM1RHS.flv.png","pageUrl":"https://maps.cotrip.org/?lat=40.161117&lon=-104.979293&zoom=12"}},{"type":"Feature","geometry":{"type":"Point","coordinates":[-107.292041,39.56063]},"properties":{"id":"6630","name":"I-70 MP 118.70 EB at No Name Lane","imageUrl":"https://cocam.carsprogram.org/Snapshots/070E11870CAM1RP1.flv.png","pageUrl":"https://maps.cotrip.org/?lat=39.56063&lon=-107.292041&zoom=12"}},{"type":"Feature","geometry":{"type":"Point","coordinates":[-105.181633,39.723424]},"properties":{"id":"6631","name":"I-70 MP 260.85 EB : 0.2 miles W of W 6th Ave","imageUrl":"https://cocam.carsprogram.org/Snapshots/070E26085CAM1RHS.flv.png","pageUrl":"https://maps.cotrip.org/?lat=39.723424&lon=-105.181633&zoom=12"}},{"type":"Feature","geometry":{"type":"Point","coordinates":[-106.201588,39.509218]},"properties":{"id":"6633","name":"I-70 MP 191.75 WB : 1.6 miles E of Vail Pass Summit","imageUrl":"https://cocam.carsprogram.org/Snapshots/070W19175CAM1RHS.flv.png","pageUrl":"https://maps.cotrip.org/?lat=39.509218&lon=-106.201588&zoom=12"}},{"type":"Feature","geometry":{"type":"Point","coordinates":[-104.979354,40.233596]},"properties":{"id":"6634","name":"I-25 MP 245.20 NB at WCR 34 Mead","imageUrl":"https://cocam.carsprogram.org/Snapshots/025N24520CAM1RP1.flv.png","pageUrl":"https://maps.cotrip.org/?lat=40.233596&lon=-104.979354&zoom=12"}},{"type":"Feature","geometry":{"type":"Point","coordinates":[-104.99025,40.407511]},"properties":{"id":"6635","name":"US 34 MP 096.40 WB at WB US 34 to NB I-25 Ramp in Loveland","imageUrl":"https://cocam.carsprogram.org/Snapshots/034W09640CAM1RP1.flv.png","pageUrl":"https://maps.cotrip.org/?lat=40.407511&lon=-104.99025&zoom=12"}},{"type":"Feature","geometry":{"type":"Point","coordinates":[-104.967491,40.407257]},"properties":{"id":"6636","name":"US 34 MP 097.65 EB : 0.2 miles W of N CR 3","imageUrl":"https://cocam.carsprogram.org/Snapshots/034E09765CAM1RHS.flv.png","pageUrl":"https://maps.cotrip.org/?lat=40.407257&lon=-104.967491&zoom=12"}},{"type":"Feature","geometry":{"type":"Point","coordinates":[-104.944399,40.406539]},"properties":{"id":"6637","name":"US 34 MP 098.80 WB at LCR 1/WCR 13","imageUrl":"https://cocam.carsprogram.org/Snapshots/034W09880CAM1NWC.flv.png","pageUrl":"https://maps.cotrip.org/?lat=40.406539&lon=-104.944399&zoom=12"}},{"type":"Feature","geometry":{"type":"Point","coordinates":[-104.907905,40.406448]},"properties":{"id":"6638","name":"US 34 MP 100.85 WB at WCR 17","imageUrl":"https://cocam.carsprogram.org/Snapshots/034W10085CAM1RHS.flv.png","pageUrl":"https://maps.cotrip.org/?lat=40.406448&lon=-104.907905&zoom=12"}},{"type":"Feature","geometry":{"type":"Point","coordinates":[-104.870155,40.405776]},"properties":{"id":"6639","name":"US 34 MP 102.80 WB at CO 257","imageUrl":"https://cocam.carsprogram.org/Snapshots/034W10280CAM1RP1.flv.png","pageUrl":"https://maps.cotrip.org/?lat=40.405776&lon=-104.870155&zoom=12"}},{"type":"Feature","geometry":{"type":"Point","coordinates":[-105.258857,40.00645]},"properties":{"id":"6640","name":"US 36 MP 037.15 EB : 0.1 miles E of Colorado Ave","imageUrl":"https://cocam.carsprogram.org/Snapshots/036E03715CAM1RHS.flv.png","pageUrl":"https://maps.cotrip.org/?lat=40.00645&lon=-105.258857&zoom=12"}},{"type":"Feature","geometry":{"type":"Point","coordinates":[-105.2593,40.001331]},"properties":{"id":"6641","name":"US 36 MP 037.50 EB at Baseline Rd WB Ramp to US 36 EB","imageUrl":"https://cocam.carsprogram.org/Snapshots/036E03750CAM1RP1.flv.png","pageUrl":"https://maps.cotrip.org/?lat=40.001331&lon=-105.2593&zoom=12"}},{"type":"Feature","geometry":{"type":"Point","coordinates":[-105.24929,39.994651]},"properties":{"id":"6642","name":"US 36 MP 038.15 EB : 0.6 miles E of Baseline Rd","imageUrl":"https://cocam.carsprogram.org/Snapshots/036E03815CAM1RHS.flv.png","pageUrl":"https://maps.cotrip.org/?lat=39.994651&lon=-105.24929&zoom=12"}},{"type":"Feature","geometry":{"type":"Point","coordinates":[-105.23262,39.985172]},"properties":{"id":"6643","name":"US 36 MP 039.20 EB at CO 157/Foothills Pkwy","imageUrl":null,"pageUrl":"https://maps.cotrip.org/?lat=39.985172&lon=-105.23262&zoom=12"}},{"type":"Feature","geometry":{"type":"Point","coordinates":[-105.211532,39.975902]},"properties":{"id":"6644","name":"US 36 MP 040.45 EB at S Cherryvale Rd","imageUrl":"https://cocam.carsprogram.org/Snapshots/036E04040CAM1RHS.flv.png","pageUrl":"https://maps.cotrip.org/?lat=39.975902&lon=-105.211532&zoom=12"}},{"type":"Feature","geometry":{"type":"Point","coordinates":[-105.188591,39.966556]},"properties":{"id":"6645","name":"US 36 MP 041.90 EB : 1.7 W of McCaslin Blvd","imageUrl":"https://cocam.carsprogram.org/Snapshots/036E04190CAM1RHS.flv.png","pageUrl":"https://maps.cotrip.org/?lat=39.966556&lon=-105.188591&zoom=12"}},{"type":"Feature","geometry":{"type":"Point","coordinates":[-105.166016,39.957512]},"properties":{"id":"6646","name":"US 36 MP 043.15 WB at McCaslin Blvd to WB US 36 Ramp","imageUrl":"https://cocam.carsprogram.org/Snapshots/036W04315CAM1RP1.flv.png","pageUrl":"https://maps.cotrip.org/?lat=39.957512&lon=-105.166016&zoom=12"}},{"type":"Feature","geometry":{"type":"Point","coordinates":[-105.149458,39.946988]},"properties":{"id":"6647","name":"US 36 MP 044.40 EB : 0.1 miles W of S 88th St","imageUrl":"https://cocam.carsprogram.org/Snapshots/036E04440CAM1RHS.flv.png","pageUrl":"https://maps.cotrip.org/?lat=39.946988&lon=-105.149458&zoom=12"}},{"type":"Feature","geometry":{"type":"Point","coordinates":[-105.141457,39.941815]},"properties":{"id":"6648","name":"US 36 MP 044.90 EB : 0.5 miles E of S 88th St","imageUrl":null,"pageUrl":"https://maps.cotrip.org/?lat=39.941815&lon=-105.141457&zoom=12"}},{"type":"Feature","geometry":{"type":"Point","coordinates":[-104.4333,39.738698]},"properties":{"id":"6649","name":"I-70 MP 304.35WB at S 1st St Bennett","imageUrl":"https://cocam.carsprogram.org/Snapshots/070W30435CAM1RP1.flv.png","pageUrl":"https://maps.cotrip.org/?lat=39.738698&lon=-104.4333&zoom=12"}},{"type":"Feature","geometry":{"type":"Point","coordinates":[-106.1455,38.089022]},"properties":{"id":"6650","name":"CO 114 MP 061.50 WB : 0.2 mi W of 8th St/US 285 Saguache","imageUrl":"https://cocam.carsprogram.org/Snapshots/114W06150CAM1RHS.flv.png","pageUrl":"https://maps.cotrip.org/?lat=38.089022&lon=-106.1455&zoom=12"}},{"type":"Feature","geometry":{"type":"Point","coordinates":[-105.65711,39.757083]},"properties":{"id":"6651","name":"I-70 MP 231.75 EB : 0.1 miles W of US 40","imageUrl":"https://cocam.carsprogram.org/Snapshots/070E23175CAM1MED.flv.png","pageUrl":"https://maps.cotrip.org/?lat=39.757083&lon=-105.65711&zoom=12"}},{"type":"Feature","geometry":{"type":"Point","coordinates":[-105.58977,39.764292]},"properties":{"id":"6652","name":"I-70 MP 235.50 EB : 0.6 miles E of Stanley Rd in Dumont","imageUrl":"https://cocam.carsprogram.org/Snapshots/070E23550CAM1ML1.flv.png","pageUrl":"https://maps.cotrip.org/?lat=39.764292&lon=-105.58977&zoom=12"}},{"type":"Feature","geometry":{"type":"Point","coordinates":[-105.23612,39.75454]},"properties":{"id":"6653","name":"US 6 MP 271.60 WB at CO 58/CO 93 in Golden","imageUrl":"https://cocam.carsprogram.org/Snapshots/006W27160CAM1SEC.flv.png","pageUrl":"https://maps.cotrip.org/?lat=39.75454&lon=-105.23612&zoom=12"}},{"type":"Feature","geometry":{"type":"Point","coordinates":[-104.7812,39.762168]},"properties":{"id":"6654","name":"I-70 MP 285.20 EB : 0.5 miles W of Tower Rd","imageUrl":"https://cocam.carsprogram.org/Snapshots/070E28520CAM1RP2.flv.png","pageUrl":"https://maps.cotrip.org/?lat=39.762168&lon=-104.7812&zoom=12"}},{"type":"Feature","geometry":{"type":"Point","coordinates":[-106.047364,39.490363]},"properties":{"id":"6655","name":"CO 9 MP 087.20 NB at Airport Rd in Breckenridge","imageUrl":"https://cocam.carsprogram.org/Snapshots/009N08720CAM1NEC.flv.png","pageUrl":"https://maps.cotrip.org/?lat=39.490363&lon=-106.047364&zoom=12"}},{"type":"Feature","geometry":{"type":"Point","coordinates":[-106.043759,39.532248]},"properties":{"id":"6656","name":"CO 9 MP 090.25 NB at Tiger Rd/Shores Ln in Breckenridge","imageUrl":"https://cocam.carsprogram.org/Snapshots/009N09025CAM1NEC.flv.png","pageUrl":"https://maps.cotrip.org/?lat=39.532248&lon=-106.043759&zoom=12"}},{"type":"Feature","geometry":{"type":"Point","coordinates":[-104.92147,38.865505]},"properties":{"id":"6657","name":"US 24 MP 297.55 EB at Cave of the Winds Rd in Manitou Springs","imageUrl":"https://cocam.carsprogram.org/Snapshots/024E29755CAM1SWC.flv.png","pageUrl":"https://maps.cotrip.org/?lat=38.865505&lon=-104.92147&zoom=12"}},{"type":"Feature","geometry":{"type":"Point","coordinates":[-105.23492,38.442049]},"properties":{"id":"6658","name":"US 50 MP 278.70 EB at 9th St","imageUrl":"https://cocam.carsprogram.org/Snapshots/050E27870CAM1SWC.flv.png","pageUrl":"https://maps.cotrip.org/?lat=38.442049&lon=-105.23492&zoom=12"}},{"type":"Feature","geometry":{"type":"Point","coordinates":[-104.82613,39.740439]},"properties":{"id":"6659","name":"I-225 MP 009.95 SB at E Colfax Ave","imageUrl":"https://cocam.carsprogram.org/Snapshots/225S00995CAM1NWC.flv.png","pageUrl":"https://maps.cotrip.org/?lat=39.740439&lon=-104.82613&zoom=12"}},{"type":"Feature","geometry":{"type":"Point","coordinates":[-105.170029,39.731346]},"properties":{"id":"6661","name":"I-70 MP 261.65 WB at W Colfax Ave","imageUrl":null,"pageUrl":"https://maps.cotrip.org/?lat=39.731346&lon=-105.170029&zoom=12"}},{"type":"Feature","geometry":{"type":"Point","coordinates":[-105.00036,39.712932]},"properties":{"id":"6662","name":"I-25 MP 208.10 SB : 0.2 miles N of W Alameda Ave","imageUrl":"https://cocam.carsprogram.org/Snapshots/025S20810CAM1GP5.flv.png","pageUrl":"https://maps.cotrip.org/?lat=39.712932&lon=-105.00036&zoom=12"}},{"type":"Feature","geometry":{"type":"Point","coordinates":[-104.71618,39.739481]},"properties":{"id":"6663","name":"I-70 MP 289.15 EB at EB I-70 Ramp to E-470","imageUrl":"https://cocam.carsprogram.org/Snapshots/070E28915CAM1SWC.flv.png","pageUrl":"https://maps.cotrip.org/?lat=39.739481&lon=-104.71618&zoom=12"}},{"type":"Feature","geometry":{"type":"Point","coordinates":[-104.86528,39.108622]},"properties":{"id":"6664","name":"I-25 MP 161.90 SB : 1.5 miles N of CO 105 in Monument","imageUrl":"https://cocam.carsprogram.org/Snapshots/025S16190CAM1RHS.flv.png","pageUrl":"https://maps.cotrip.org/?lat=39.108622&lon=-104.86528&zoom=12"}},{"type":"Feature","geometry":{"type":"Point","coordinates":[-104.85235,39.195009]},"properties":{"id":"6665","name":"I-25 MP 167.95 NB : 0.7 miles N of E Greenland Rd","imageUrl":"https://cocam.carsprogram.org/Snapshots/025N16795CAM1RHS.flv.png","pageUrl":"https://maps.cotrip.org/?lat=39.195009&lon=-104.85235&zoom=12"}},{"type":"Feature","geometry":{"type":"Point","coordinates":[-104.80944,39.770572]},"properties":{"id":"6666","name":"I-70 MP 283.55 EB at Pena Blvd Ramp","imageUrl":"https://cocam.carsprogram.org/Snapshots/070E28355CAM1RP2.flv.png","pageUrl":"https://maps.cotrip.org/?lat=39.770572&lon=-104.80944&zoom=12"}},{"type":"Feature","geometry":{"type":"Point","coordinates":[-104.86563,39.776037]},"properties":{"id":"6667","name":"I-70 MP 280.60 WB at Havana St Underpass","imageUrl":"https://cocam.carsprogram.org/Snapshots/070W28060CAM1RHS.flv.png","pageUrl":"https://maps.cotrip.org/?lat=39.776037&lon=-104.86563&zoom=12"}},{"type":"Feature","geometry":{"type":"Point","coordinates":[-104.9154,39.77808]},"properties":{"id":"6668","name":"I-70 MP 277.90 EB : 0.8 miles E of Quebec St","imageUrl":"https://cocam.carsprogram.org/Snapshots/070E27790CAM1RHS.flv.png","pageUrl":"https://maps.cotrip.org/?lat=39.77808&lon=-104.9154&zoom=12"}},{"type":"Feature","geometry":{"type":"Point","coordinates":[-104.82426,39.772398]},"properties":{"id":"6669","name":"I-70 MP 282.80 WB at I-225","imageUrl":"https://cocam.carsprogram.org/Snapshots/070W28280CAM1RHS.flv.png","pageUrl":"https://maps.cotrip.org/?lat=39.772398&lon=-104.82426&zoom=12"}},{"type":"Feature","geometry":{"type":"Point","coordinates":[-104.83526,39.77331]},"properties":{"id":"6670","name":"I-70 MP 282.20 WB : 0.4 miles W of I-225","imageUrl":"https://cocam.carsprogram.org/Snapshots/070W28220CAM1RHS.flv.png","pageUrl":"https://maps.cotrip.org/?lat=39.77331&lon=-104.83526&zoom=12"}},{"type":"Feature","geometry":{"type":"Point","coordinates":[-104.84781,39.773855]},"properties":{"id":"6671","name":"I-70 MP 281.50 EB at Peoria St","imageUrl":"https://cocam.carsprogram.org/Snapshots/070E28150CAM1RHS.flv.png","pageUrl":"https://maps.cotrip.org/?lat=39.773855&lon=-104.84781&zoom=12"}},{"type":"Feature","geometry":{"type":"Point","coordinates":[-104.85673,39.774671]},"properties":{"id":"6672","name":"I-70 MP 281.05 EB : 0.6 miles E of Havana St","imageUrl":"https://cocam.carsprogram.org/Snapshots/070E28105CAM1RHS.flv.png","pageUrl":"https://maps.cotrip.org/?lat=39.774671&lon=-104.85673&zoom=12"}},{"type":"Feature","geometry":{"type":"Point","coordinates":[-105.10981,39.78282]},"properties":{"id":"6673","name":"CO-391 MP 009.45 SB at W 48th Ave/I-70 Frontage Rd S","imageUrl":"https://cocam.carsprogram.org/Snapshots/391S00945CAM1SWC.flv.png","pageUrl":"https://maps.cotrip.org/?lat=39.78282&lon=-105.10981&zoom=12"}},{"type":"Feature","geometry":{"type":"Point","coordinates":[-105.10978,39.560926]},"properties":{"id":"6674","name":"C-470 MP 012.45 WB at WB C-470 Ramp to S Kipling Pkwy","imageUrl":"https://cocam.carsprogram.org/Snapshots/470W01245CAM1NEC.flv.png","pageUrl":"https://maps.cotrip.org/?lat=39.560926&lon=-105.10978&zoom=12"}},{"type":"Feature","geometry":{"type":"Point","coordinates":[-105.08118,39.788285]},"properties":{"id":"6675","name":"CO-121 MP 016.95 NB at WB I-70 Ramp to SB Wadsworth Blvd","imageUrl":"https://cocam.carsprogram.org/Snapshots/121N01695CAM1NEC.flv.png","pageUrl":"https://maps.cotrip.org/?lat=39.788285&lon=-105.08118&zoom=12"}},{"type":"Feature","geometry":{"type":"Point","coordinates":[-105.10987,39.771111]},"properties":{"id":"6677","name":"CO-391 MP 008.60 SB at W 39th Ave","imageUrl":"https://cocam.carsprogram.org/Snapshots/391S00860CAM1NWC.flv.png","pageUrl":"https://maps.cotrip.org/?lat=39.771111&lon=-105.10987&zoom=12"}},{"type":"Feature","geometry":{"type":"Point","coordinates":[-105.10964,39.78381]},"properties":{"id":"6678","name":"I-70 MP 267.40 EB at Kipling St to EB I-70 Ramp","imageUrl":"https://cocam.carsprogram.org/Snapshots/070E26740CAM1NEC.flv.png","pageUrl":"https://maps.cotrip.org/?lat=39.78381&lon=-105.10964&zoom=12"}},{"type":"Feature","geometry":{"type":"Point","coordinates":[-105.07835,39.913897]},"properties":{"id":"6679","name":"US 287 MP 297.45 SB at Upham St/CO 128","imageUrl":"https://cocam.carsprogram.org/Snapshots/287S29745CAM1SEC.flv.png","pageUrl":"https://maps.cotrip.org/?lat=39.913897&lon=-105.07835&zoom=12"}},{"type":"Feature","geometry":{"type":"Point","coordinates":[-105.0905,39.928689]},"properties":{"id":"6680","name":"US 287 MP 298.85 NB at W 10th Ave","imageUrl":"https://cocam.carsprogram.org/Snapshots/287N29885CAM1SEC.flv.png","pageUrl":"https://maps.cotrip.org/?lat=39.928689&lon=-105.0905&zoom=12"}},{"type":"Feature","geometry":{"type":"Point","coordinates":[-105.09002,39.958106]},"properties":{"id":"6681","name":"US 287 MP 300.85 NB at W Dillon Rd/NW Pkwy South Ramp","imageUrl":"https://cocam.carsprogram.org/Snapshots/287N30085CAM1NEC.flv.png","pageUrl":"https://maps.cotrip.org/?lat=39.958106&lon=-105.09002&zoom=12"}},{"type":"Feature","geometry":{"type":"Point","coordinates":[-105.09021,39.959688]},"properties":{"id":"6682","name":"US 287 MP 300.95 NB at W Dillon Rd/NW Pkwy North Ramp","imageUrl":"https://cocam.carsprogram.org/Snapshots/287N30095CAM1MED.flv.png","pageUrl":"https://maps.cotrip.org/?lat=39.959688&lon=-105.09021&zoom=12"}},{"type":"Feature","geometry":{"type":"Point","coordinates":[-105.09004,39.972254]},"properties":{"id":"6683","name":"US 287 MP 301.80 NB at Empire Rd/CO 42","imageUrl":"https://cocam.carsprogram.org/Snapshots/287N30180CAM1SEC.flv.png","pageUrl":"https://maps.cotrip.org/?lat=39.972254&lon=-105.09004&zoom=12"}},{"type":"Feature","geometry":{"type":"Point","coordinates":[-105.09378,39.977775]},"properties":{"id":"6684","name":"US 287 MP 302.30 SB at S Public Rd in Lafayette","imageUrl":"https://cocam.carsprogram.org/Snapshots/287S30230CAM1SWC.flv.png","pageUrl":"https://maps.cotrip.org/?lat=39.977775&lon=-105.09378&zoom=12"}},{"type":"Feature","geometry":{"type":"Point","coordinates":[-105.09859,39.987089]},"properties":{"id":"6685","name":"US 287 MP 303.15 SB at W South Boulder Rd","imageUrl":"https://cocam.carsprogram.org/Snapshots/287S30315CAM1NWC.flv.png","pageUrl":"https://maps.cotrip.org/?lat=39.987089&lon=-105.09859&zoom=12"}},{"type":"Feature","geometry":{"type":"Point","coordinates":[-104.94132,39.780526]},"properties":{"id":"6686","name":"I-70 MP 276.55 WB at Colorado Blvd to WB I-70 Ramp","imageUrl":"https://cocam.carsprogram.org/Snapshots/070W27655CAM1SWC.flv.png","pageUrl":"https://maps.cotrip.org/?lat=39.780526&lon=-104.94132&zoom=12"}},{"type":"Feature","geometry":{"type":"Point","coordinates":[-104.93141,39.780337]},"properties":{"id":"6687","name":"I-70 MP 277.05 WB at Dahlia St","imageUrl":"https://cocam.carsprogram.org/Snapshots/070W27705CAM1RHS.flv.png","pageUrl":"https://maps.cotrip.org/?lat=39.780337&lon=-104.93141&zoom=12"}},{"type":"Feature","geometry":{"type":"Point","coordinates":[-104.94527,39.78]},"properties":{"id":"6688","name":"I-70 MP 276.35 EB at Monroe St Overpass","imageUrl":"https://cocam.carsprogram.org/Snapshots/070E27635CAM1RP1.flv.png","pageUrl":"https://maps.cotrip.org/?lat=39.78&lon=-104.94527&zoom=12"}},{"type":"Feature","geometry":{"type":"Point","coordinates":[-104.97887,39.779265]},"properties":{"id":"6689","name":"I-70 MP 274.60 EB at Washington St","imageUrl":"https://cocam.carsprogram.org/Snapshots/070E27460CAM1RHS.flv.png","pageUrl":"https://maps.cotrip.org/?lat=39.779265&lon=-104.97887&zoom=12"}},{"type":"Feature","geometry":{"type":"Point","coordinates":[-104.97648,39.779868]},"properties":{"id":"6690","name":"I-70 MP 274.75 WB : 0.1 miles E of Washington St","imageUrl":"https://cocam.carsprogram.org/Snapshots/070W27475CAM1RHS.flv.png","pageUrl":"https://maps.cotrip.org/?lat=39.779868&lon=-104.97648&zoom=12"}},{"type":"Feature","geometry":{"type":"Point","coordinates":[-104.94055,39.779834]},"properties":{"id":"6691","name":"I-70 MP 276.60 EB at Colorado Blvd to EB I-70 Ramp","imageUrl":"https://cocam.carsprogram.org/Snapshots/070E27660CAM1NEC.flv.png","pageUrl":"https://maps.cotrip.org/?lat=39.779834&lon=-104.94055&zoom=12"}},{"type":"Feature","geometry":{"type":"Point","coordinates":[-104.95952,39.780102]},"properties":{"id":"6692","name":"I-70 MP 275.55 EB at York St","imageUrl":"https://cocam.carsprogram.org/Snapshots/070E27555CAM1RP1.flv.png","pageUrl":"https://maps.cotrip.org/?lat=39.780102&lon=-104.95952&zoom=12"}},{"type":"Feature","geometry":{"type":"Point","coordinates":[-104.95746,39.780336]},"properties":{"id":"6693","name":"I-70 MP 275.65 EB at W Cover on I-70","imageUrl":"https://cocam.carsprogram.org/Snapshots/070E27565CAM1MED.flv.png","pageUrl":"https://maps.cotrip.org/?lat=39.780336&lon=-104.95746&zoom=12"}},{"type":"Feature","geometry":{"type":"Point","coordinates":[-104.81014,39.771472]},"properties":{"id":"6694","name":"I-70 MP 283.50 WB at Chambers Rd","imageUrl":"https://cocam.carsprogram.org/Snapshots/070W28350CAM1SWC.flv.png","pageUrl":"https://maps.cotrip.org/?lat=39.771472&lon=-104.81014&zoom=12"}},{"type":"Feature","geometry":{"type":"Point","coordinates":[-104.96808,39.780245]},"properties":{"id":"6695","name":"I-70 MP 275.20 WB : 0.1 miles W of Brighton Blvd","imageUrl":"https://cocam.carsprogram.org/Snapshots/070W27520CAM1RHS.flv.png","pageUrl":"https://maps.cotrip.org/?lat=39.780245&lon=-104.96808&zoom=12"}},{"type":"Feature","geometry":{"type":"Point","coordinates":[-104.99114,39.779202]},"properties":{"id":"6696","name":"I-70 MP 274.00 EB at Washington St and SB I-25 Ramps","imageUrl":null,"pageUrl":"https://maps.cotrip.org/?lat=39.779202&lon=-104.99114&zoom=12"}},{"type":"Feature","geometry":{"type":"Point","coordinates":[-104.9959,39.781482]},"properties":{"id":"6697","name":"I-70 MP 273.65 EB : 0.4 miles W of I-25","imageUrl":"https://cocam.carsprogram.org/Snapshots/070E27365CAM1RP2.flv.png","pageUrl":"https://maps.cotrip.org/?lat=39.781482&lon=-104.9959&zoom=12"}},{"type":"Feature","geometry":{"type":"Point","coordinates":[-104.99128,39.780993]},"properties":{"id":"6698","name":"I-70 MP 273.95 WB at SB I-25 to EB I-70 Ramp","imageUrl":"https://cocam.carsprogram.org/Snapshots/070W27395CAM1RP1.flv.png","pageUrl":"https://maps.cotrip.org/?lat=39.780993&lon=-104.99128&zoom=12"}},{"type":"Feature","geometry":{"type":"Point","coordinates":[-104.81668,40.173704]},"properties":{"id":"6700","name":"US 85 MP 248.20 SB at CR 26 in Platteville","imageUrl":"https://cocam.carsprogram.org/Snapshots/085S24820CAM1RHS.flv.png","pageUrl":"https://maps.cotrip.org/?lat=40.173704&lon=-104.81668&zoom=12"}},{"type":"Feature","geometry":{"type":"Point","coordinates":[-104.81073,40.097103]},"properties":{"id":"6701","name":"US 85 MP 242.85 NB : 0.2 miles N of 14th St in Fort Lupton","imageUrl":"https://cocam.carsprogram.org/Snapshots/085N24285CAM1RHS.flv.png","pageUrl":"https://maps.cotrip.org/?lat=40.097103&lon=-104.81073&zoom=12"}},{"type":"Feature","geometry":{"type":"Point","coordinates":[-104.82124,40.236154]},"properties":{"id":"6702","name":"US 85 MP 252.55 SB : 0.3 miles N of CR 34 in Platteville","imageUrl":"https://cocam.carsprogram.org/Snapshots/085S25255CAM1RHS.flv.png","pageUrl":"https://maps.cotrip.org/?lat=40.236154&lon=-104.82124&zoom=12"}},{"type":"Feature","geometry":{"type":"Point","coordinates":[-104.82063,40.192034]},"properties":{"id":"6703","name":"US 85 MP 249.50 SB at Fort Vasquez Port of Entry in Platteville","imageUrl":"https://cocam.carsprogram.org/Snapshots/085S24950CAM1MED.flv.png","pageUrl":"https://maps.cotrip.org/?lat=40.192034&lon=-104.82063&zoom=12"}},{"type":"Feature","geometry":{"type":"Point","coordinates":[-104.82366,39.986544]},"properties":{"id":"6704","name":"US 85 MP 235.10 NB at W Bridge St/CO 7 in Brighton","imageUrl":"https://cocam.carsprogram.org/Snapshots/085N23510CAM1RHS.flv.png","pageUrl":"https://maps.cotrip.org/?lat=39.986544&lon=-104.82366&zoom=12"}},{"type":"Feature","geometry":{"type":"Point","coordinates":[-104.68973,40.385835]},"properties":{"id":"6705","name":"US 85 MP 265.35 NB : 0.1 miles N of 31st St in Evans","imageUrl":"https://cocam.carsprogram.org/Snapshots/085N26535CAM1RHS.flv.png","pageUrl":"https://maps.cotrip.org/?lat=40.385835&lon=-104.68973&zoom=12"}},{"type":"Feature","geometry":{"type":"Point","coordinates":[-104.99312,40.422585]},"properties":{"id":"6707","name":"I-25 MP 258.30 SB : 1.0 mile N of US 34 in Loveland","imageUrl":"https://cocam.carsprogram.org/Snapshots/025S25830CAM1RHS.flv.png","pageUrl":"https://maps.cotrip.org/?lat=40.422585&lon=-104.99312&zoom=12"}},{"type":"Feature","geometry":{"type":"Point","coordinates":[-104.992,40.509189]},"properties":{"id":"6708","name":"I-25 MP 264.35 SB : 1.0 mile S of E Harmony Rd","imageUrl":"https://cocam.carsprogram.org/Snapshots/025S26435CAM1RHS.flv.png","pageUrl":"https://maps.cotrip.org/?lat=40.509189&lon=-104.992&zoom=12"}},{"type":"Feature","geometry":{"type":"Point","coordinates":[-104.99332,39.753423]},"properties":{"id":"6709","name":"I-25 MP 212.10 NB at 20th St and Market St","imageUrl":"https://cocam.carsprogram.org/Snapshots/025N21210CAM1SEC.flv.png","pageUrl":"https://maps.cotrip.org/?lat=39.753423&lon=-104.99332&zoom=12"}},{"type":"Feature","geometry":{"type":"Point","coordinates":[-104.83886,38.689167]},"properties":{"id":"6710","name":"CO 115 MP 037.85 NB : 0.4 miles S of Old Canon City Rd","imageUrl":"https://cocam.carsprogram.org/Snapshots/115N03785CAM1RHS.flv.png","pageUrl":"https://maps.cotrip.org/?lat=38.689167&lon=-104.83886&zoom=12"}},{"type":"Feature","geometry":{"type":"Point","coordinates":[-104.86253,38.667108]},"properties":{"id":"6711","name":"CO 115 MP 035.70 NB : 0.2 miles S of Roca Roja Cir","imageUrl":"https://cocam.carsprogram.org/Snapshots/115N03570CAM1RHS.flv.png","pageUrl":"https://maps.cotrip.org/?lat=38.667108&lon=-104.86253&zoom=12"}},{"type":"Feature","geometry":{"type":"Point","coordinates":[-107.67177,39.543316]},"properties":{"id":"6712","name":"I-70 MP 096.40 EB : 1.2 miles W of 9th St in Silt","imageUrl":"https://cocam.carsprogram.org/Snapshots/070E09640CAM1RHS.flv.png","pageUrl":"https://maps.cotrip.org/?lat=39.543316&lon=-107.67177&zoom=12"}},{"type":"Feature","geometry":{"type":"Point","coordinates":[-107.45295,39.573869]},"properties":{"id":"6713","name":"I-70 MP 108.95 WB at Canyon Creek Rd in Glenwood Springs","imageUrl":"https://cocam.carsprogram.org/Snapshots/070W10895CAM1RP1.flv.png","pageUrl":"https://maps.cotrip.org/?lat=39.573869&lon=-107.45295&zoom=12"}},{"type":"Feature","geometry":{"type":"Point","coordinates":[-104.85626,39.066863]},"properties":{"id":"6715","name":"I-25 MP 159.00 NB : 0.8 miles N of Baptist Rd in Monument","imageUrl":"https://cocam.carsprogram.org/Snapshots/025N15900CAM1RHS.flv.png","pageUrl":"https://maps.cotrip.org/?lat=39.066863&lon=-104.85626&zoom=12"}},{"type":"Feature","geometry":{"type":"Point","coordinates":[-104.8791,39.222509]},"properties":{"id":"6716","name":"I-25 MP 170.40 SB : 1.8 miles S of Upper Lake Gulch Rd","imageUrl":"https://cocam.carsprogram.org/Snapshots/025S17040CAM1RHS.flv.png","pageUrl":"https://maps.cotrip.org/?lat=39.222509&lon=-104.8791&zoom=12"}},{"type":"Feature","geometry":{"type":"Point","coordinates":[-104.87785,39.223397]},"properties":{"id":"6717","name":"I-25 MP 170.45 NB at Larkspur Chain Station","imageUrl":"https://cocam.carsprogram.org/Snapshots/025N17045CAM1RP1.flv.png","pageUrl":"https://maps.cotrip.org/?lat=39.223397&lon=-104.87785&zoom=12"}},{"type":"Feature","geometry":{"type":"Point","coordinates":[-106.2904,69.633287]},"properties":{"id":"6718","name":"I-70 MP 181.10 EB : 0.8 miles E of Big Horn Rd in Vail","imageUrl":"https://cocam.carsprogram.org/Snapshots/070E18110CAM1RHS.flv.png","pageUrl":"https://maps.cotrip.org/?lat=69.633287&lon=-106.2904&zoom=12"}},{"type":"Feature","geometry":{"type":"Point","coordinates":[-104.987278,39.874212]},"properties":{"id":"6719","name":"I-25 MP 220.30 NB : 0.4 miles N of Thornton Pkwy","imageUrl":"https://cocam.carsprogram.org/Snapshots/025N22030CAM1GP2.flv.png","pageUrl":"https://maps.cotrip.org/?lat=39.874212&lon=-104.987278&zoom=12"}},{"type":"Feature","geometry":{"type":"Point","coordinates":[-106.008858,39.653587]},"properties":{"id":"6720","name":"I-70 MP 208.90 WB : 3.3 miles E of US 6/CO 9 in Silverthorne","imageUrl":"https://cocam.carsprogram.org/Snapshots/070W20890CAM2RHS.flv.png","pageUrl":"https://maps.cotrip.org/?lat=39.653587&lon=-106.008858&zoom=12"}},{"type":"Feature","geometry":{"type":"Point","coordinates":[-105.417709,39.736808]},"properties":{"id":"6721","name":"US 6 MP 258.70 WB : 0.4 miles W of Tunnel 6","imageUrl":"https://cocam.carsprogram.org/Snapshots/006W25870CAM1RHS.flv.png","pageUrl":"https://maps.cotrip.org/?lat=39.736808&lon=-105.417709&zoom=12"}},{"type":"Feature","geometry":{"type":"Point","coordinates":[-104.933044,39.560581]},"properties":{"id":"6723","name":"C-470 MP 022.55 EB : 0.5 miles E of S Colorado Blvd","imageUrl":"https://cocam.carsprogram.org/Snapshots/470E02255CAM1RHS.flv.png","pageUrl":"https://maps.cotrip.org/?lat=39.560581&lon=-104.933044&zoom=12"}},{"type":"Feature","geometry":{"type":"Point","coordinates":[-104.619712,38.377067]},"properties":{"id":"6724","name":"I-25 MP 106.15 SB : 1.8 miles S of Purcell Blvd in Pueblo West","imageUrl":"https://cocam.carsprogram.org/Snapshots/025S10615CAM1RHS.flv.png","pageUrl":"https://maps.cotrip.org/?lat=38.377067&lon=-104.619712&zoom=12"}},{"type":"Feature","geometry":{"type":"Point","coordinates":[-105.021461,39.563831]},"properties":{"id":"6725","name":"C-470 MP 017.75 EB : 0.7 miles E of S Santa Fe Dr/US 85","imageUrl":"https://cocam.carsprogram.org/Snapshots/470E01775CAM1RHS.flv.png","pageUrl":"https://maps.cotrip.org/?lat=39.563831&lon=-105.021461&zoom=12"}},{"type":"Feature","geometry":{"type":"Point","coordinates":[-105.428802,39.741798]},"properties":{"id":"6726","name":"US 6 MP 257.85 EB : 0.6 miles E of I-70","imageUrl":"https://cocam.carsprogram.org/Snapshots/006E25785CAM1RHS.flv.png","pageUrl":"https://maps.cotrip.org/?lat=39.741798&lon=-105.428802&zoom=12"}},{"type":"Feature","geometry":{"type":"Point","coordinates":[-105.071731,39.914321]},"properties":{"id":"6727","name":"US 287 MP 297.00 NB at Main St in Broomfield","imageUrl":"https://cocam.carsprogram.org/Snapshots/287N29700CAM1NEC.flv.png","pageUrl":"https://maps.cotrip.org/?lat=39.914321&lon=-105.071731&zoom=12"}},{"type":"Feature","geometry":{"type":"Point","coordinates":[-104.814033,38.766121]},"properties":{"id":"6728","name":"CO 115 MP 043.85 SB at S Academy Blvd in Fort Carson","imageUrl":"https://cocam.carsprogram.org/Snapshots/115S04385CAM1RP1.flv.png","pageUrl":"https://maps.cotrip.org/?lat=38.766121&lon=-104.814033&zoom=12"}},{"type":"Feature","geometry":{"type":"Point","coordinates":[-105.252426,39.749622]},"properties":{"id":"6729","name":"US 6 MP 270.35 WB : 0.2 miles E of Tunnel 1","imageUrl":"https://cocam.carsprogram.org/Snapshots/006W27035CAM1RHS.flv.png","pageUrl":"https://maps.cotrip.org/?lat=39.749622&lon=-105.252426&zoom=12"}},{"type":"Feature","geometry":{"type":"Point","coordinates":[-104.906943,39.864987]},"properties":{"id":"6730","name":"I-76 MP 011.10 WB : 0.6 miles W of E 96th Ave","imageUrl":"https://cocam.carsprogram.org/Snapshots/076W01110CAM1GP3.flv.png","pageUrl":"https://maps.cotrip.org/?lat=39.864987&lon=-104.906943&zoom=12"}},{"type":"Feature","geometry":{"type":"Point","coordinates":[-105.370895,39.736106]},"properties":{"id":"6731","name":"US 6 MP 262.15 WB at Mayhem Gulch Trailhead","imageUrl":"https://cocam.carsprogram.org/Snapshots/006W26215CAM1RHS.flv.png","pageUrl":"https://maps.cotrip.org/?lat=39.736106&lon=-105.370895&zoom=12"}},{"type":"Feature","geometry":{"type":"Point","coordinates":[-105.360183,39.736286]},"properties":{"id":"6732","name":"US 6 MP 262.65 EB : 1.8 miles W of Tunnel 3","imageUrl":"https://cocam.carsprogram.org/Snapshots/006E26265CAM1RHS.flv.png","pageUrl":"https://maps.cotrip.org/?lat=39.736286&lon=-105.360183&zoom=12"}},{"type":"Feature","geometry":{"type":"Point","coordinates":[-107.324688,39.548313]},"properties":{"id":"6733","name":"I-70 MP 116.60 EB at Grand Ave in Glenwood Springs","imageUrl":"https://cocam.carsprogram.org/Snapshots/070E11660CAM1RHS.flv.png","pageUrl":"https://maps.cotrip.org/?lat=39.548313&lon=-107.324688&zoom=12"}},{"type":"Feature","geometry":{"type":"Point","coordinates":[-106.109092,39.583892]},"properties":{"id":"6734","name":"I-70 MP 201.45 EB : 0.6 miles E of Main St in Frisco","imageUrl":"https://cocam.carsprogram.org/Snapshots/070E20145CAM1GP2.flv.png","pageUrl":"https://maps.cotrip.org/?lat=39.583892&lon=-106.109092&zoom=12"}},{"type":"Feature","geometry":{"type":"Point","coordinates":[-105.54111,39.746159]},"properties":{"id":"6735","name":"I-70 MP 238.50 WB : 0.5 miles W of Stanley Rd/CR 312","imageUrl":"https://cocam.carsprogram.org/Snapshots/070W23850CAM1MED.flv.png","pageUrl":"https://maps.cotrip.org/?lat=39.746159&lon=-105.54111&zoom=12"}},{"type":"Feature","geometry":{"type":"Point","coordinates":[-105.002174,40.581298]},"properties":{"id":"6736","name":"I-25 MP 269.40 SB at CO 14/E Mulberry St","imageUrl":"https://cocam.carsprogram.org/Snapshots/025S26940CAM1RP1.flv.png","pageUrl":"https://maps.cotrip.org/?lat=40.581298&lon=-105.002174&zoom=12"}},{"type":"Feature","geometry":{"type":"Point","coordinates":[-104.604957,38.265644]},"properties":{"id":"6737","name":"I-25 MP 098.45 SB : 0.2 miles S of E 1st St","imageUrl":"https://cocam.carsprogram.org/Snapshots/025S09845CAM1RP1.flv.png","pageUrl":"https://maps.cotrip.org/?lat=38.265644&lon=-104.604957&zoom=12"}},{"type":"Feature","geometry":{"type":"Point","coordinates":[-104.887985,39.600838]},"properties":{"id":"6738","name":"I-25 MP 197.65 NB : 0.6 miles N of E Arapahoe Rd","imageUrl":"https://cocam.carsprogram.org/Snapshots/025N19765CAM1RHS.flv.png","pageUrl":"https://maps.cotrip.org/?lat=39.600838&lon=-104.887985&zoom=12"}},{"type":"Feature","geometry":{"type":"Point","coordinates":[-104.995462,39.767528]},"properties":{"id":"6739","name":"I-25 MP 212.70 NB at W 38th Ave/Park Ave","imageUrl":"https://cocam.carsprogram.org/Snapshots/025N21270CAM1RP1.flv.png","pageUrl":"https://maps.cotrip.org/?lat=39.767528&lon=-104.995462&zoom=12"}},{"type":"Feature","geometry":{"type":"Point","coordinates":[-105.882614,39.684727]},"properties":{"id":"6740","name":"I-70 MP 216.60 EB : 0.4 miles E of US 6 Loveland Pass 4","imageUrl":null,"pageUrl":"https://maps.cotrip.org/?lat=39.684727&lon=-105.882614&zoom=12"}},{"type":"Feature","geometry":{"type":"Point","coordinates":[-105.536143,39.74438]},"properties":{"id":"6741","name":"I-70 MP 238.90 EB at Stanley Rd/CR 312 in Idaho Springs","imageUrl":"https://cocam.carsprogram.org/Snapshots/070E23890CAM1RHS.flv.png","pageUrl":"https://maps.cotrip.org/?lat=39.74438&lon=-105.536143&zoom=12"}},{"type":"Feature","geometry":{"type":"Point","coordinates":[-104.99331,40.378276]},"properties":{"id":"6742","name":"I-25 MP 255.30 SB at CO 402 in Johnstown","imageUrl":"https://cocam.carsprogram.org/Snapshots/025S25530CAM1RHS.flv.png","pageUrl":"https://maps.cotrip.org/?lat=40.378276&lon=-104.99331&zoom=12"}},{"type":"Feature","geometry":{"type":"Point","coordinates":[-107.257003,39.56221]},"properties":{"id":"6743","name":"I-70 MP 120.85 WB : 0.2 miles W of Grizzly Creek Rest Area","imageUrl":"https://cocam.carsprogram.org/Snapshots/070W12085CAM1RHS.flv.png","pageUrl":"https://maps.cotrip.org/?lat=39.56221&lon=-107.257003&zoom=12"}},{"type":"Feature","geometry":{"type":"Point","coordinates":[-105.150718,39.597644]},"properties":{"id":"6744","name":"C-470 MP 008.75 WB : 0.9 miles E of W Bowles Ave","imageUrl":"https://cocam.carsprogram.org/Snapshots/470W00875CAM1RHS.flv.png","pageUrl":"https://maps.cotrip.org/?lat=39.597644&lon=-105.150718&zoom=12"}},{"type":"Feature","geometry":{"type":"Point","coordinates":[-104.994154,39.704091]},"properties":{"id":"6745","name":"I-25 MP 207.40 SB : 0.2 miles S of Santa Fe Dr","imageUrl":"https://cocam.carsprogram.org/Snapshots/025S20740CAM1RHS.flv.png","pageUrl":"https://maps.cotrip.org/?lat=39.704091&lon=-104.994154&zoom=12"}},{"type":"Feature","geometry":{"type":"Point","coordinates":[-104.980004,39.823874]},"properties":{"id":"6746","name":"CO 224 MP 000.65 WB : 0.1 miles E of I-25","imageUrl":"https://cocam.carsprogram.org/Snapshots/224W00065CAM1RHS.flv.png","pageUrl":"https://maps.cotrip.org/?lat=39.823874&lon=-104.980004&zoom=12"}},{"type":"Feature","geometry":{"type":"Point","coordinates":[-104.906116,39.633827]},"properties":{"id":"6747","name":"I-225 MP 000.15 SB (2) : SB I-225 Ramp to SB I-25","imageUrl":"https://cocam.carsprogram.org/Snapshots/225S00015CAM2RHS.flv.png","pageUrl":"https://maps.cotrip.org/?lat=39.633827&lon=-104.906116&zoom=12"}},{"type":"Feature","geometry":{"type":"Point","coordinates":[-105.438011,39.761035]},"properties":{"id":"6748","name":"CO 119 MP 002.75 SB : 2.8 miles N of US 6","imageUrl":"https://cocam.carsprogram.org/Snapshots/119S00275CAM1RHS.flv.png","pageUrl":"https://maps.cotrip.org/?lat=39.761035&lon=-105.438011&zoom=12"}},{"type":"Feature","geometry":{"type":"Point","coordinates":[-104.965736,39.685749]},"properties":{"id":"6749","name":"I-25 MP 205.40 SB : 0.4 miles N of S University Blvd","imageUrl":"https://cocam.carsprogram.org/Snapshots/025S20540CAM1RP2.flv.png","pageUrl":"https://maps.cotrip.org/?lat=39.685749&lon=-104.965736&zoom=12"}},{"type":"Feature","geometry":{"type":"Point","coordinates":[-106.026435,39.646541]},"properties":{"id":"6750","name":"I-70 MP 208.00 WB : 2.4 miles E of US 6/CO 9 in Silverthorne","imageUrl":"https://cocam.carsprogram.org/Snapshots/070W20800CAM1RHS.flv.png","pageUrl":"https://maps.cotrip.org/?lat=39.646541&lon=-106.026435&zoom=12"}},{"type":"Feature","geometry":{"type":"Point","coordinates":[-105.279449,39.740772]},"properties":{"id":"6751","name":"US 6 MP 268.40 EB : 2.1 miles W of Tunnel 1","imageUrl":"https://cocam.carsprogram.org/Snapshots/006E26840CAM1RHS.flv.png","pageUrl":"https://maps.cotrip.org/?lat=39.740772&lon=-105.279449&zoom=12"}},{"type":"Feature","geometry":{"type":"Point","coordinates":[-104.974122,39.565236]},"properties":{"id":"6752","name":"C-470 MP 020.35 WB : 0.7 miles W of S University Blvd/CO 177","imageUrl":null,"pageUrl":"https://maps.cotrip.org/?lat=39.565236&lon=-104.974122&zoom=12"}},{"type":"Feature","geometry":{"type":"Point","coordinates":[-105.241175,39.885171]},"properties":{"id":"6753","name":"CO 93 MP 008.80 SB at Westgate Rd in Golden","imageUrl":"https://cocam.carsprogram.org/Snapshots/093S00880CAM1SWC.flv.png","pageUrl":"https://maps.cotrip.org/?lat=39.885171&lon=-105.241175&zoom=12"}},{"type":"Feature","geometry":{"type":"Point","coordinates":[-105.317756,39.736606]},"properties":{"id":"6754","name":"US 6 MP 265.55 EB : 0.2 miles E of Tunnel 2","imageUrl":"https://cocam.carsprogram.org/Snapshots/006E26555CAM1RHS.flv.png","pageUrl":"https://maps.cotrip.org/?lat=39.736606&lon=-105.317756&zoom=12"}},{"type":"Feature","geometry":{"type":"Point","coordinates":[-106.072839,39.619805]},"properties":{"id":"6755","name":"I-70 MP 204.65 EB : 0.7 miles W of US 6/CO 9 in Silverthorne","imageUrl":"https://cocam.carsprogram.org/Snapshots/070E20465CAM1GP2.flv.png","pageUrl":"https://maps.cotrip.org/?lat=39.619805&lon=-106.072839&zoom=12"}},{"type":"Feature","geometry":{"type":"Point","coordinates":[-104.607826,38.428871]},"properties":{"id":"6756","name":"I-25 MP 109.95 SB : 0.3 miles S of Pinon","imageUrl":"https://cocam.carsprogram.org/Snapshots/025S10995CAM1RP1.flv.png","pageUrl":"https://maps.cotrip.org/?lat=38.428871&lon=-104.607826&zoom=12"}},{"type":"Feature","geometry":{"type":"Point","coordinates":[-106.42652,39.622567]},"properties":{"id":"6757","name":"I-70 MP 172.85 WB : 0.6 miles W of Charmonix Rd in Vail","imageUrl":null,"pageUrl":"https://maps.cotrip.org/?lat=39.622567&lon=-106.42652&zoom=12"}},{"type":"Feature","geometry":{"type":"Point","coordinates":[-105.630995,39.765404]},"properties":{"id":"6758","name":"I-70 MP 233.30 WB : 0.9 miles W of Mountain St in Dumont","imageUrl":"https://cocam.carsprogram.org/Snapshots/070W23330CAM1RHS.flv.png","pageUrl":"https://maps.cotrip.org/?lat=39.765404&lon=-105.630995&zoom=12"}},{"type":"Feature","geometry":{"type":"Point","coordinates":[-105.220458,39.741462]},"properties":{"id":"6759","name":"US 6 MP 272.95 EB : 0.3 miles E of 19th St in Golden","imageUrl":"https://cocam.carsprogram.org/Snapshots/006E27295CAM1RHS.flv.png","pageUrl":"https://maps.cotrip.org/?lat=39.741462&lon=-105.220458&zoom=12"}},{"type":"Feature","geometry":{"type":"Point","coordinates":[-104.979022,39.694029]},"properties":{"id":"6760","name":"I-25 MP 206.40 NB : 0.3 miles S of S Logan St","imageUrl":"https://cocam.carsprogram.org/Snapshots/025N20640CAM1RHS.flv.png","pageUrl":"https://maps.cotrip.org/?lat=39.694029&lon=-104.979022&zoom=12"}},{"type":"Feature","geometry":{"type":"Point","coordinates":[-104.911033,39.640861]},"properties":{"id":"6761","name":"I-25 MP 200.65 NB : 0.5 miles N of I-225","imageUrl":"https://cocam.carsprogram.org/Snapshots/025N20065CAM1GP2.flv.png","pageUrl":"https://maps.cotrip.org/?lat=39.640861&lon=-104.911033&zoom=12"}},{"type":"Feature","geometry":{"type":"Point","coordinates":[-106.096057,39.592239]},"properties":{"id":"6762","name":"I-70 MP 202.35 EB at CO 9 in Frisco","imageUrl":"https://cocam.carsprogram.org/Snapshots/070E20235CAM1RP1.flv.png","pageUrl":"https://maps.cotrip.org/?lat=39.592239&lon=-106.096057&zoom=12"}},{"type":"Feature","geometry":{"type":"Point","coordinates":[-104.987276,39.823691]},"properties":{"id":"6763","name":"CO 224 MP 000.30 EB at CO 53/Broadway","imageUrl":"https://cocam.carsprogram.org/Snapshots/224E00030CAM1NEC.flv.png","pageUrl":"https://maps.cotrip.org/?lat=39.823691&lon=-104.987276&zoom=12"}},{"type":"Feature","geometry":{"type":"Point","coordinates":[-104.971443,38.896942]},"properties":{"id":"6764","name":"US 24 MP 293.65 EB at Fountain Ave in Cascade","imageUrl":"https://cocam.carsprogram.org/Snapshots/024E29365CAM1SWC.flv.png","pageUrl":"https://maps.cotrip.org/?lat=38.896942&lon=-104.971443&zoom=12"}},{"type":"Feature","geometry":{"type":"Point","coordinates":[-104.962237,39.823585]},"properties":{"id":"6765","name":"I-76 MP 006.95 EB : EB I-270 Ramp to EB I-76","imageUrl":"https://cocam.carsprogram.org/Snapshots/076E00695CAM1RP1.flv.png","pageUrl":"https://maps.cotrip.org/?lat=39.823585&lon=-104.962237&zoom=12"}},{"type":"Feature","geometry":{"type":"Point","coordinates":[-105.982758,39.662048]},"properties":{"id":"6766","name":"I-70 MP 210.65 EB : 2.9 miles W of Eisenhower Tunnel","imageUrl":"https://cocam.carsprogram.org/Snapshots/070E21065CAM1RHS.flv.png","pageUrl":"https://maps.cotrip.org/?lat=39.662048&lon=-105.982758&zoom=12"}},{"type":"Feature","geometry":{"type":"Point","coordinates":[-106.520798,39.63735]},"properties":{"id":"6767","name":"I-70 MP 166.65 WB at Avon Rd","imageUrl":"https://cocam.carsprogram.org/Snapshots/070W16665CAM1RHS.flv.png","pageUrl":"https://maps.cotrip.org/?lat=39.63735&lon=-106.520798&zoom=12"}},{"type":"Feature","geometry":{"type":"Point","coordinates":[-104.966993,39.563704]},"properties":{"id":"6768","name":"C-470 MP 020.75 EB : 0.4 miles W of S University Blvd/CO 177","imageUrl":null,"pageUrl":"https://maps.cotrip.org/?lat=39.563704&lon=-104.966993&zoom=12"}},{"type":"Feature","geometry":{"type":"Point","coordinates":[-104.834884,37.750564]},"properties":{"id":"6769","name":"I-25 MP 059.10 SB : 0.4 miles N of Butte Rd/CR 103 on Frontage Rd","imageUrl":"https://cocam.carsprogram.org/Snapshots/025S05910CAM1RHS.flv.png","pageUrl":"https://maps.cotrip.org/?lat=37.750564&lon=-104.834884&zoom=12"}},{"type":"Feature","geometry":{"type":"Point","coordinates":[-104.824699,39.908813]},"properties":{"id":"6770","name":"I-76 MP 016.50 EB at Sable Blvd/CO 2","imageUrl":"https://cocam.carsprogram.org/Snapshots/076E01650CAM1RP1.flv.png","pageUrl":"https://maps.cotrip.org/?lat=39.908813&lon=-104.824699&zoom=12"}},{"type":"Feature","geometry":{"type":"Point","coordinates":[-105.411041,39.74039]},"properties":{"id":"6771","name":"US 6 MP 259.15 WB at E Tunnel 6","imageUrl":"https://cocam.carsprogram.org/Snapshots/006W25915CAM1RHS.flv.png","pageUrl":"https://maps.cotrip.org/?lat=39.74039&lon=-105.411041&zoom=12"}},{"type":"Feature","geometry":{"type":"Point","coordinates":[-106.442546,39.614717]},"properties":{"id":"6773","name":"I-70 MP 171.75 WB : 0.7 miles E of Dowd Junction","imageUrl":"https://cocam.carsprogram.org/Snapshots/070W17175CAM1RHS.flv.png","pageUrl":"https://maps.cotrip.org/?lat=39.614717&lon=-106.442546&zoom=12"}},{"type":"Feature","geometry":{"type":"Point","coordinates":[-107.083332,39.641665]},"properties":{"id":"6774","name":"I-70 MP 132.30 EB : 1.3 miles W of Colorado River Rd in Dotsero","imageUrl":"https://cocam.carsprogram.org/Snapshots/070E13230CAM1GP2.flv.png","pageUrl":"https://maps.cotrip.org/?lat=39.641665&lon=-107.083332&zoom=12"}},{"type":"Feature","geometry":{"type":"Point","coordinates":[-104.983109,39.83684]},"properties":{"id":"6776","name":"I-25 MP 217.60 NB : 0.6 miles N of US 36/I-270","imageUrl":"https://cocam.carsprogram.org/Snapshots/025N21760CAM1RHS.flv.png","pageUrl":"https://maps.cotrip.org/?lat=39.83684&lon=-104.983109&zoom=12"}},{"type":"Feature","geometry":{"type":"Point","coordinates":[-104.8715,39.555601]},"properties":{"id":"6777","name":"C-470 MP 026.15 WB at I-25","imageUrl":"https://cocam.carsprogram.org/Snapshots/470W02615CAM1RHS.flv.png","pageUrl":"https://maps.cotrip.org/?lat=39.555601&lon=-104.8715&zoom=12"}},{"type":"Feature","geometry":{"type":"Point","coordinates":[-105.015388,39.561878]},"properties":{"id":"6778","name":"C-470 MP 018.00 EB : 0.5 miles W of Lucent Blvd","imageUrl":"https://cocam.carsprogram.org/Snapshots/470E01800CAM1RHS.flv.png","pageUrl":"https://maps.cotrip.org/?lat=39.561878&lon=-105.015388&zoom=12"}},{"type":"Feature","geometry":{"type":"Point","coordinates":[-106.042388,39.641376]},"properties":{"id":"6781","name":"I-70 MP 207.05 WB : 1.6 miles E of US 6/CO 9 in Silverthorne","imageUrl":"https://cocam.carsprogram.org/Snapshots/070W20705CAM1RHS.flv.png","pageUrl":"https://maps.cotrip.org/?lat=39.641376&lon=-106.042388&zoom=12"}},{"type":"Feature","geometry":{"type":"Point","coordinates":[-104.988204,39.943521]},"properties":{"id":"6782","name":"I-25 MP 225.10 SB at E 136th Ave","imageUrl":"https://cocam.carsprogram.org/Snapshots/025S22510CAM1RHS.flv.png","pageUrl":"https://maps.cotrip.org/?lat=39.943521&lon=-104.988204&zoom=12"}},{"type":"Feature","geometry":{"type":"Point","coordinates":[-102.596489,39.294266]},"properties":{"id":"6783","name":"I-70 MP 419.85 EB : 0.5 miles E of Colorado Ave/Rd 30.5 in Stratton","imageUrl":"https://cocam.carsprogram.org/Snapshots/070E41985CAM1RHS.flv.png","pageUrl":"https://maps.cotrip.org/?lat=39.294266&lon=-102.596489&zoom=12"}},{"type":"Feature","geometry":{"type":"Point","coordinates":[-105.230278,39.791873]},"properties":{"id":"6784","name":"CO 93 MP 002.50 NB : 0.6 miles S of W 56th Ave in Golden","imageUrl":"https://cocam.carsprogram.org/Snapshots/093N00250CAM1RHS.flv.png","pageUrl":"https://maps.cotrip.org/?lat=39.791873&lon=-105.230278&zoom=12"}},{"type":"Feature","geometry":{"type":"Point","coordinates":[-106.045341,39.526779]},"properties":{"id":"6785","name":"CO 9 MP 090.00 SB at Fairview Blvd in Breckenridge","imageUrl":"https://cocam.carsprogram.org/Snapshots/009S09000CAM1RHS.flv.png","pageUrl":"https://maps.cotrip.org/?lat=39.526779&lon=-106.045341&zoom=12"}},{"type":"Feature","geometry":{"type":"Point","coordinates":[-106.008858,39.653587]},"properties":{"id":"6786","name":"I-70 MP 208.90 WB : 3.3 miles E of US 6/CO 9 3 in Silverthorne","imageUrl":"https://cocam.carsprogram.org/Snapshots/070W20890CAM1RHS-3.flv.png","pageUrl":"https://maps.cotrip.org/?lat=39.653587&lon=-106.008858&zoom=12"}},{"type":"Feature","geometry":{"type":"Point","coordinates":[-105.166702,39.637611]},"properties":{"id":"6787","name":"C-470 MP 005.65 WB at US-285","imageUrl":"https://cocam.carsprogram.org/Snapshots/470W00565CAM1RHS.flv.png","pageUrl":"https://maps.cotrip.org/?lat=39.637611&lon=-105.166702&zoom=12"}},{"type":"Feature","geometry":{"type":"Point","coordinates":[-104.992576,40.479907]},"properties":{"id":"6788","name":"I-25 MP 262.30 SB at CO 392/ECR 32","imageUrl":"https://cocam.carsprogram.org/Snapshots/025S26230CAM1RP1.flv.png","pageUrl":"https://maps.cotrip.org/?lat=40.479907&lon=-104.992576&zoom=12"}},{"type":"Feature","geometry":{"type":"Point","coordinates":[-104.907279,39.634094]},"properties":{"id":"6789","name":"I-25 MP 200.10 SB : SB I-25 Ramp to NB I-225/DTC Blvd","imageUrl":"https://cocam.carsprogram.org/Snapshots/025S20010CAM1RP2.flv.png","pageUrl":"https://maps.cotrip.org/?lat=39.634094&lon=-104.907279&zoom=12"}},{"type":"Feature","geometry":{"type":"Point","coordinates":[-105.561078,39.75528]},"properties":{"id":"6790","name":"I-70 MP 237.25 EB : 0.4 miles W of Fall River Rd","imageUrl":"https://cocam.carsprogram.org/Snapshots/070E23725CAM1RHS.flv.png","pageUrl":"https://maps.cotrip.org/?lat=39.75528&lon=-105.561078&zoom=12"}},{"type":"Feature","geometry":{"type":"Point","coordinates":[-105.391624,39.742248]},"properties":{"id":"6791","name":"US 6 MP 260.70 EB : 0.5 miles E of CO 119","imageUrl":"https://cocam.carsprogram.org/Snapshots/006E26070CAM1RHS.flv.png","pageUrl":"https://maps.cotrip.org/?lat=39.742248&lon=-105.391624&zoom=12"}},{"type":"Feature","geometry":{"type":"Point","coordinates":[-105.240343,39.701317]},"properties":{"id":"6792","name":"I-70 MP 256.60 WB : 0.6 miles E of Lookout Mountain","imageUrl":"https://cocam.carsprogram.org/Snapshots/070W25660CAM1RHS.flv.png","pageUrl":"https://maps.cotrip.org/?lat=39.701317&lon=-105.240343&zoom=12"}},{"type":"Feature","geometry":{"type":"Point","coordinates":[-106.085681,39.602474]},"properties":{"id":"6793","name":"I-70 MP 203.20 EB : 0.9 miles E of CO 9 in Frisco","imageUrl":"https://cocam.carsprogram.org/Snapshots/070E20320CAM1RP1.flv.png","pageUrl":"https://maps.cotrip.org/?lat=39.602474&lon=-106.085681&zoom=12"}},{"type":"Feature","geometry":{"type":"Point","coordinates":[-106.670794,39.697029]},"properties":{"id":"6794","name":"I-70 MP 156.60 WB at CO 131","imageUrl":"https://cocam.carsprogram.org/Snapshots/070W15660CAM1RHS.flv.png","pageUrl":"https://maps.cotrip.org/?lat=39.697029&lon=-106.670794&zoom=12"}},{"type":"Feature","geometry":{"type":"Point","coordinates":[-104.986114,39.848606]},"properties":{"id":"6795","name":"I-25 MP 218.30 SB : 0.2 miles S of 84th Ave","imageUrl":"https://cocam.carsprogram.org/Snapshots/025S21830CAM1RHS.flv.png","pageUrl":"https://maps.cotrip.org/?lat=39.848606&lon=-104.986114&zoom=12"}},{"type":"Feature","geometry":{"type":"Point","coordinates":[-105.882614,39.684727]},"properties":{"id":"6796","name":"I-70 MP 216.60 EB : 0.4 miles E of US 6 Loveland Pass 2","imageUrl":null,"pageUrl":"https://maps.cotrip.org/?lat=39.684727&lon=-105.882614&zoom=12"}},{"type":"Feature","geometry":{"type":"Point","coordinates":[-106.045402,39.639724]},"properties":{"id":"6797","name":"I-70 MP 206.85 EB : 1.4 miles E of US 6/CO 9 in Silverthorne","imageUrl":"https://cocam.carsprogram.org/Snapshots/070E20685CAM1MED.flv.png","pageUrl":"https://maps.cotrip.org/?lat=39.639724&lon=-106.045402&zoom=12"}},{"type":"Feature","geometry":{"type":"Point","coordinates":[-105.44783,39.7649]},"properties":{"id":"6798","name":"CO 119 MP 003.35 SB : 3.4 miles N of US 6","imageUrl":"https://cocam.carsprogram.org/Snapshots/119S00335CAM1RHS.flv.png","pageUrl":"https://maps.cotrip.org/?lat=39.7649&lon=-105.44783&zoom=12"}},{"type":"Feature","geometry":{"type":"Point","coordinates":[-105.008621,39.560626]},"properties":{"id":"6799","name":"C-470 MP 018.40 WB at Lucent Blvd","imageUrl":"https://cocam.carsprogram.org/Snapshots/470W01840CAM1RHS.flv.png","pageUrl":"https://maps.cotrip.org/?lat=39.560626&lon=-105.008621&zoom=12"}},{"type":"Feature","geometry":{"type":"Point","coordinates":[-106.333557,39.645875]},"properties":{"id":"6800","name":"I-70 MP 178.45 EB at East Central Vail Chain Station","imageUrl":"https://cocam.carsprogram.org/Snapshots/070E17845CAM1RHS.flv.png","pageUrl":"https://maps.cotrip.org/?lat=39.645875&lon=-106.333557&zoom=12"}},{"type":"Feature","geometry":{"type":"Point","coordinates":[-105.006381,39.558921]},"properties":{"id":"6801","name":"C-470 MP 018.55 EB : 0.1 miles E of Lucent Blvd","imageUrl":"https://cocam.carsprogram.org/Snapshots/470E01855CAM1RP1.flv.png","pageUrl":"https://maps.cotrip.org/?lat=39.558921&lon=-105.006381&zoom=12"}},{"type":"Feature","geometry":{"type":"Point","coordinates":[-106.24842,39.576171]},"properties":{"id":"6802","name":"I-70 MP 186.35 EB : 3.3 miles W of Vail Pass Summit","imageUrl":"https://cocam.carsprogram.org/Snapshots/070E18635CAM1RHS.flv.png","pageUrl":"https://maps.cotrip.org/?lat=39.576171&lon=-106.24842&zoom=12"}},{"type":"Feature","geometry":{"type":"Point","coordinates":[-106.449138,39.608015]},"properties":{"id":"6803","name":"I-70 MP 171.10 EB at Dowd Junction","imageUrl":"https://cocam.carsprogram.org/Snapshots/070E17110CAM1RP1.flv.png","pageUrl":"https://maps.cotrip.org/?lat=39.608015&lon=-106.449138&zoom=12"}},{"type":"Feature","geometry":{"type":"Point","coordinates":[-105.004976,39.761521]},"properties":{"id":"6804","name":"I-25 MP 212.10 SB at 20th St","imageUrl":"https://cocam.carsprogram.org/Snapshots/025S21210CAM1RP1.flv.png","pageUrl":"https://maps.cotrip.org/?lat=39.761521&lon=-105.004976&zoom=12"}},{"type":"Feature","geometry":{"type":"Point","coordinates":[-104.62939,38.207031]},"properties":{"id":"6805","name":"I-25 MP 094.00 SB : 0.8 miles S of Pueblo Blvd/CO 45","imageUrl":"https://cocam.carsprogram.org/Snapshots/025S09400CAM1GP2.flv.png","pageUrl":"https://maps.cotrip.org/?lat=38.207031&lon=-104.62939&zoom=12"}},{"type":"Feature","geometry":{"type":"Point","coordinates":[-106.09277,39.576733]},"properties":{"id":"6806","name":"CO 9 MP 096.05 NB at Marina Rd in Frisco","imageUrl":"https://cocam.carsprogram.org/Snapshots/009N09605CAM1NEC.flv.png","pageUrl":"https://maps.cotrip.org/?lat=39.576733&lon=-106.09277&zoom=12"}},{"type":"Feature","geometry":{"type":"Point","coordinates":[-105.124221,39.561915]},"properties":{"id":"6807","name":"C-470 MP 011.70 EB : 0.8 miles W of S Kipling Pkwy","imageUrl":"https://cocam.carsprogram.org/Snapshots/470E01170CAM1RHS.flv.png","pageUrl":"https://maps.cotrip.org/?lat=39.561915&lon=-105.124221&zoom=12"}},{"type":"Feature","geometry":{"type":"Point","coordinates":[-106.483201,39.622329]},"properties":{"id":"6808","name":"I-70 MP 168.95 WB at US 6 in Eagle","imageUrl":"https://cocam.carsprogram.org/Snapshots/070W16895CAM1RHS.flv.png","pageUrl":"https://maps.cotrip.org/?lat=39.622329&lon=-106.483201&zoom=12"}},{"type":"Feature","geometry":{"type":"Point","coordinates":[-105.038339,39.783716]},"properties":{"id":"6809","name":"I-70 MP 271.35 WB : 0.2 miles W of Lowell Blvd","imageUrl":"https://cocam.carsprogram.org/Snapshots/070W27135CAM1RHS.flv.png","pageUrl":"https://maps.cotrip.org/?lat=39.783716&lon=-105.038339&zoom=12"}},{"type":"Feature","geometry":{"type":"Point","coordinates":[-105.614047,39.765532]},"properties":{"id":"6810","name":"I-70 MP 234.20 EB at Mountain St in Dumont","imageUrl":"https://cocam.carsprogram.org/Snapshots/070E23420CAM1MED.flv.png","pageUrl":"https://maps.cotrip.org/?lat=39.765532&lon=-105.614047&zoom=12"}},{"type":"Feature","geometry":{"type":"Point","coordinates":[-105.014464,39.728895]},"properties":{"id":"6811","name":"I-25 MP 209.45 NB at W 8th Ave","imageUrl":"https://cocam.carsprogram.org/Snapshots/025N20945CAM1RHS.flv.png","pageUrl":"https://maps.cotrip.org/?lat=39.728895&lon=-105.014464&zoom=12"}},{"type":"Feature","geometry":{"type":"Point","coordinates":[-104.981638,39.565688]},"properties":{"id":"6813","name":"C-470 MP 019.95 WB : 0.3 miles E of S Broadway","imageUrl":"https://cocam.carsprogram.org/Snapshots/470W01995CAM1RHS.flv.png","pageUrl":"https://maps.cotrip.org/?lat=39.565688&lon=-104.981638&zoom=12"}},{"type":"Feature","geometry":{"type":"Point","coordinates":[-105.076148,39.559308]},"properties":{"id":"6814","name":"C-470 MP 014.50 EB : 0.7 miles E of S Wadsworth Blvd/CO 121","imageUrl":"https://cocam.carsprogram.org/Snapshots/470E01450CAM1RHS.flv.png","pageUrl":"https://maps.cotrip.org/?lat=39.559308&lon=-105.076148&zoom=12"}},{"type":"Feature","geometry":{"type":"Point","coordinates":[-107.310501,39.560981]},"properties":{"id":"6815","name":"I-70 MP 117.65 WB at W No Name Tunnel","imageUrl":"https://cocam.carsprogram.org/Snapshots/070W11765CAM1RHS.flv.png","pageUrl":"https://maps.cotrip.org/?lat=39.560981&lon=-107.310501&zoom=12"}},{"type":"Feature","geometry":{"type":"Point","coordinates":[-104.98014,39.827301]},"properties":{"id":"6816","name":"US 36 MP 057.35 EB at EB US 36 to NB I-25 Ramp","imageUrl":"https://cocam.carsprogram.org/Snapshots/036E05735CAM1RP1.flv.png","pageUrl":"https://maps.cotrip.org/?lat=39.827301&lon=-104.98014&zoom=12"}},{"type":"Feature","geometry":{"type":"Point","coordinates":[-104.986615,39.867683]},"properties":{"id":"6817","name":"I-25 MP 219.85 NB at Thornton Pkwy","imageUrl":"https://cocam.carsprogram.org/Snapshots/025N21985CAM1RP1.flv.png","pageUrl":"https://maps.cotrip.org/?lat=39.867683&lon=-104.986615&zoom=12"}},{"type":"Feature","geometry":{"type":"Point","coordinates":[-105.084216,39.554448]},"properties":{"id":"6818","name":"C-470 MP 013.95 WB at S Wadsworth Blvd/CO 121","imageUrl":null,"pageUrl":"https://maps.cotrip.org/?lat=39.554448&lon=-105.084216&zoom=12"}},{"type":"Feature","geometry":{"type":"Point","coordinates":[-105.122222,39.932778]},"properties":{"id":"6819","name":"US 36 MP 046.15 WB : 0.4 miles E of NW Pkwy/Interlocken Loop","imageUrl":"https://cocam.carsprogram.org/Snapshots/036W04615CAM1RP1.flv.png","pageUrl":"https://maps.cotrip.org/?lat=39.932778&lon=-105.122222&zoom=12"}},{"type":"Feature","geometry":{"type":"Point","coordinates":[-105.083559,39.903504]},"properties":{"id":"6823","name":"US 36 MP 049.15 EB : 1.4 miles E of CO 121/Wadsworth Pkwy","imageUrl":"https://cocam.carsprogram.org/Snapshots/036E04915CAM1RHS.flv.png","pageUrl":"https://maps.cotrip.org/?lat=39.903504&lon=-105.083559&zoom=12"}},{"type":"Feature","geometry":{"type":"Point","coordinates":[-105.074899,39.89067]},"properties":{"id":"6824","name":"US 36 MP 050.05 EB : 0.4 miles W of W 104th Ave","imageUrl":"https://cocam.carsprogram.org/Snapshots/036E05005CAM1RHS.flv.png","pageUrl":"https://maps.cotrip.org/?lat=39.89067&lon=-105.074899&zoom=12"}},{"type":"Feature","geometry":{"type":"Point","coordinates":[-105.070235,39.884379]},"properties":{"id":"6825","name":"US 36 MP 050.55 EB : 0.2 miles E of W 104th Ave","imageUrl":"https://cocam.carsprogram.org/Snapshots/036E05055CAM1RHS.flv.png","pageUrl":"https://maps.cotrip.org/?lat=39.884379&lon=-105.070235&zoom=12"}},{"type":"Feature","geometry":{"type":"Point","coordinates":[-105.055433,39.859378]},"properties":{"id":"6827","name":"US 36 MP 052.60 EB at Sheridan Blvd","imageUrl":"https://cocam.carsprogram.org/Snapshots/036E05260CAM1RHS.flv.png","pageUrl":"https://maps.cotrip.org/?lat=39.859378&lon=-105.055433&zoom=12"}},{"type":"Feature","geometry":{"type":"Point","coordinates":[-105.049623,39.852413]},"properties":{"id":"6828","name":"US 36 MP 053.15 WB : 0.7 miles E of Sheridan Blvd","imageUrl":"https://cocam.carsprogram.org/Snapshots/036W05315CAM1RHS.flv.png","pageUrl":"https://maps.cotrip.org/?lat=39.852413&lon=-105.049623&zoom=12"}},{"type":"Feature","geometry":{"type":"Point","coordinates":[-105.030487,39.837238]},"properties":{"id":"6830","name":"US 36 MP 054.65 WB : 0.3 miles W of Federal Blvd","imageUrl":"https://cocam.carsprogram.org/Snapshots/036W05465CAM1MED.flv.png","pageUrl":"https://maps.cotrip.org/?lat=39.837238&lon=-105.030487&zoom=12"}},{"type":"Feature","geometry":{"type":"Point","coordinates":[-105.020439,39.834969]},"properties":{"id":"6831","name":"US 36 MP 055.10 WB : 0.3 miles E of Federal Blvd","imageUrl":"https://cocam.carsprogram.org/Snapshots/036W05510CAM1ML1.flv.png","pageUrl":"https://maps.cotrip.org/?lat=39.834969&lon=-105.020439&zoom=12"}},{"type":"Feature","geometry":{"type":"Point","coordinates":[-105.007666,39.83125]},"properties":{"id":"6832","name":"US 36 MP 055.85 EB : 0.1 miles W of N Pecos St","imageUrl":"https://cocam.carsprogram.org/Snapshots/036E05585CAM1RHS.flv.png","pageUrl":"https://maps.cotrip.org/?lat=39.83125&lon=-105.007666&zoom=12"}},{"type":"Feature","geometry":{"type":"Point","coordinates":[-105.0047,39.830338]},"properties":{"id":"6833","name":"US 36 MP 056.00 EB : 0.1 miles E of N Pecos St","imageUrl":"https://cocam.carsprogram.org/Snapshots/036E05600CAM1ML1.flv.png","pageUrl":"https://maps.cotrip.org/?lat=39.830338&lon=-105.0047&zoom=12"}},{"type":"Feature","geometry":{"type":"Point","coordinates":[-104.99826,39.827945]},"properties":{"id":"6834","name":"US 36 MP 056.60 EB : 0.4 miles W of Broadway","imageUrl":null,"pageUrl":"https://maps.cotrip.org/?lat=39.827945&lon=-104.99826&zoom=12"}},{"type":"Feature","geometry":{"type":"Point","coordinates":[-105.19837,39.72491]},"properties":{"id":"6836","name":"US 6 MP 274.65 EB at Johnson Rd in Golden","imageUrl":null,"pageUrl":"https://maps.cotrip.org/?lat=39.72491&lon=-105.19837&zoom=12"}},{"type":"Feature","geometry":{"type":"Point","coordinates":[-105.18907,39.725113]},"properties":{"id":"6837","name":"US 6 MP 275.15 EB at W Colfax Ave in Golden","imageUrl":null,"pageUrl":"https://maps.cotrip.org/?lat=39.725113&lon=-105.18907&zoom=12"}},{"type":"Feature","geometry":{"type":"Point","coordinates":[-104.709282,38.672588]},"properties":{"id":"6838","name":"I-25 MP 127.85 SB at Sante Fe Ave in Fountain","imageUrl":"https://cocam.carsprogram.org/Snapshots/025S12785CAM1SEC.flv.png","pageUrl":"https://maps.cotrip.org/?lat=38.672588&lon=-104.709282&zoom=12"}},{"type":"Feature","geometry":{"type":"Point","coordinates":[-104.979148,40.204395]},"properties":{"id":"6839","name":"I-25 MP 243.15 NB at CO 66 NB I-25 Ramp","imageUrl":"https://cocam.carsprogram.org/Snapshots/025N24315CAM1NWC.flv.png","pageUrl":"https://maps.cotrip.org/?lat=40.204395&lon=-104.979148&zoom=12"}},{"type":"Feature","geometry":{"type":"Point","coordinates":[-106.045042,39.477173]},"properties":{"id":"6840","name":"CO 9 MP 086.45 NB at S Main St in Breckenridge","imageUrl":"https://cocam.carsprogram.org/Snapshots/009N08645CAM1NEC.flv.png","pageUrl":"https://maps.cotrip.org/?lat=39.477173&lon=-106.045042&zoom=12"}},{"type":"Feature","geometry":{"type":"Point","coordinates":[-106.042146,39.474301]},"properties":{"id":"6841","name":"CO 9 MP 086.15 SB at Broken Lance Dr in Breckenridge","imageUrl":"https://cocam.carsprogram.org/Snapshots/009S08615CAM1SWC.flv.png","pageUrl":"https://maps.cotrip.org/?lat=39.474301&lon=-106.042146&zoom=12"}},{"type":"Feature","geometry":{"type":"Point","coordinates":[-106.048692,39.482088]},"properties":{"id":"6842","name":"CO 9 MP 086.75 NB at Ski Hill Rd in Breckenridge","imageUrl":"https://cocam.carsprogram.org/Snapshots/009N08675CAM1SEC.flv.png","pageUrl":"https://maps.cotrip.org/?lat=39.482088&lon=-106.048692&zoom=12"}},{"type":"Feature","geometry":{"type":"Point","coordinates":[-104.825897,39.725456]},"properties":{"id":"6843","name":"I-225 MP 008.95 SB at E 6th Ave","imageUrl":"https://cocam.carsprogram.org/Snapshots/225S00895CAM1SWC.flv.png","pageUrl":"https://maps.cotrip.org/?lat=39.725456&lon=-104.825897&zoom=12"}},{"type":"Feature","geometry":{"type":"Point","coordinates":[-106.14126,39.504261]},"properties":{"id":"6844","name":"CO 91 MP 022.20 NB at Copper Rd in Copper Mountain","imageUrl":"https://cocam.carsprogram.org/Snapshots/091N02220CAM1SEC.flv.png","pageUrl":"https://maps.cotrip.org/?lat=39.504261&lon=-106.14126&zoom=12"}},{"type":"Feature","geometry":{"type":"Point","coordinates":[-105.10272,40.000081]},"properties":{"id":"6845","name":"CO 7 MP 061.90 SB at US 287 in Lafayette","imageUrl":"https://cocam.carsprogram.org/Snapshots/007S06190CAM1SEC.flv.png","pageUrl":"https://maps.cotrip.org/?lat=40.000081&lon=-105.10272&zoom=12"}},{"type":"Feature","geometry":{"type":"Point","coordinates":[-105.10272,40.000081]},"properties":{"id":"6846","name":"CO 7 MP 062.15 NB at N Carr Ave in Lafayette","imageUrl":"https://cocam.carsprogram.org/Snapshots/007N06215CAM1NWC.flv.png","pageUrl":"https://maps.cotrip.org/?lat=40.000081&lon=-105.10272&zoom=12"}},{"type":"Feature","geometry":{"type":"Point","coordinates":[-105.09047,40.000214]},"properties":{"id":"6847","name":"CO 7 MP 062.55 NB at N Public Rd in Lafayette","imageUrl":"https://cocam.carsprogram.org/Snapshots/007N06255CAM1NEC.flv.png","pageUrl":"https://maps.cotrip.org/?lat=40.000214&lon=-105.09047&zoom=12"}},{"type":"Feature","geometry":{"type":"Point","coordinates":[-105.0746,40.000352]},"properties":{"id":"6848","name":"CO 7 MP 063.20 NB at N 119th St in Lafayette","imageUrl":"https://cocam.carsprogram.org/Snapshots/007N06320CAM1NWC.flv.png","pageUrl":"https://maps.cotrip.org/?lat=40.000352&lon=-105.0746&zoom=12"}},{"type":"Feature","geometry":{"type":"Point","coordinates":[-105.06069,40.000405]},"properties":{"id":"6849","name":"CO 7 MP 064.15 NB at E County Line Rd in Lafayette","imageUrl":null,"pageUrl":"https://maps.cotrip.org/?lat=40.000405&lon=-105.06069&zoom=12"}},{"type":"Feature","geometry":{"type":"Point","coordinates":[-105.03689,40.000408]},"properties":{"id":"6850","name":"CO 7 MP 065.35 NB at Bonanza Dr/Lowell Blvd in Broomfield","imageUrl":"https://cocam.carsprogram.org/Snapshots/007N06535CAM1NEC.flv.png","pageUrl":"https://maps.cotrip.org/?lat=40.000408&lon=-105.03689&zoom=12"}},{"type":"Feature","geometry":{"type":"Point","coordinates":[-105.1057,39.91611]},"properties":{"id":"6852","name":"CO-128 MP 007.50 WB at Interlocken Blvd/Airport Way","imageUrl":"https://cocam.carsprogram.org/Snapshots/128W00750CAM1NWC.flv.png","pageUrl":"https://maps.cotrip.org/?lat=39.91611&lon=-105.1057&zoom=12"}},{"type":"Feature","geometry":{"type":"Point","coordinates":[-105.08416,39.912043]},"properties":{"id":"6853","name":"CO-128 MP 008.70 EB at Wadsworth Blvd","imageUrl":"https://cocam.carsprogram.org/Snapshots/128E00870CAM1SEC.flv.png","pageUrl":"https://maps.cotrip.org/?lat=39.912043&lon=-105.08416&zoom=12"}},{"type":"Feature","geometry":{"type":"Point","coordinates":[-105.01535,39.914247]},"properties":{"id":"6854","name":"CO-128 MP 012.65 WB at N Zuni St","imageUrl":null,"pageUrl":"https://maps.cotrip.org/?lat=39.914247&lon=-105.01535&zoom=12"}},{"type":"Feature","geometry":{"type":"Point","coordinates":[-104.96022,39.565984]},"properties":{"id":"6855","name":"CO-177 MP 000.10 NB at E County Line Rd","imageUrl":"https://cocam.carsprogram.org/Snapshots/177N00010CAM1SEC.flv.png","pageUrl":"https://maps.cotrip.org/?lat=39.565984&lon=-104.96022&zoom=12"}},{"type":"Feature","geometry":{"type":"Point","coordinates":[-104.96051,39.580508]},"properties":{"id":"6856","name":"CO-177 MP 001.00 SB at E Dry Creek Rd","imageUrl":"https://cocam.carsprogram.org/Snapshots/177S00100CAM1SWC.flv.png","pageUrl":"https://maps.cotrip.org/?lat=39.580508&lon=-104.96051&zoom=12"}},{"type":"Feature","geometry":{"type":"Point","coordinates":[-104.9601,39.588974]},"properties":{"id":"6857","name":"CO-177 MP 001.55 NB at E Easter Ave","imageUrl":"https://cocam.carsprogram.org/Snapshots/177N00155CAM1NEC.flv.png","pageUrl":"https://maps.cotrip.org/?lat=39.588974&lon=-104.9601&zoom=12"}},{"type":"Feature","geometry":{"type":"Point","coordinates":[-104.95996,39.595344]},"properties":{"id":"6858","name":"CO-177 MP 002.00 NB at E Arapahoe Rd","imageUrl":"https://cocam.carsprogram.org/Snapshots/177N00200CAM1NEC.flv.png","pageUrl":"https://maps.cotrip.org/?lat=39.595344&lon=-104.95996&zoom=12"}},{"type":"Feature","geometry":{"type":"Point","coordinates":[-105.20944,39.729962]},"properties":{"id":"6859","name":"US 6 MP 273.95 EB at Heritage Rd in Golden","imageUrl":"https://cocam.carsprogram.org/Snapshots/006E27395CAM1SWC.flv.png","pageUrl":"https://maps.cotrip.org/?lat=39.729962&lon=-105.20944&zoom=12"}},{"type":"Feature","geometry":{"type":"Point","coordinates":[-105.08162,39.841942]},